address,lat,long,geometry,STATEFP,COUNTYFP,TRACTCE,GEOID,NAME,NAMELSAD,MTFCC,FUNCSTAT,ALAND,AWATER,INTPTLAT,INTPTLON
"980 S ISABELLA RD, MOUNT PLEASANT, MI 48858",43.6262701,-84.7485539,"[-84.74855389999999, 43.62627010000001]","26","073","940300","26073940300","9403",Census Tract 9403,G5020,S,"25260289","638487","+43.6152730","-084.7379235"
"1221 SOUTH DR, MOUNT PLEASANT, MI 48858",43.5993477,-84.7609728,"[-84.76097279999999, 43.5993477]","26","073","940300","26073940300","9403",Census Tract 9403,G5020,S,"25260289","638487","+43.6152730","-084.7379235"
"801 E INDUSTRIAL AVE, MOUNT PLEASANT, MI 48858",43.6195262,-84.7663387,"[-84.76633869999999, 43.6195262]","26","073","940300","26073940300","9403",Census Tract 9403,G5020,S,"25260289","638487","+43.6152730","-084.7379235"
"1011 INDUSTRIAL AVE, MOUNT PLEASANT, MI 48858",43.620081,-84.7679166,"[-84.76791659999999, 43.620081]","26","073","940300","26073940300","9403",Census Tract 9403,G5020,S,"25260289","638487","+43.6152730","-084.7379235"
"2113 ENTERPRISE DR, MOUNT PLEASANT, MI 48858",43.6095196,-84.7291875,"[-84.7291875, 43.6095196]","26","073","940300","26073940300","9403",Census Tract 9403,G5020,S,"25260289","638487","+43.6152730","-084.7379235"
"6828 Lea Pick Dr, MOUNT PLEASANT, MI 48804",43.6131839,-84.7102893,"[-84.7102893, 43.6131839]","26","073","940300","26073940300","9403",Census Tract 9403,G5020,S,"25260289","638487","+43.6152730","-084.7379235"
"Mount Pleasant Maintenance Garage, MOUNT PLEASANT, MI 48858",43.5978075,-84.7675139,"[-84.7675139, 43.59780749999999]","26","073","940300","26073940300","9403",Census Tract 9403,G5020,S,"25260289","638487","+43.6152730","-084.7379235"
"10550 COLEMAN ROAD, BEAL CITY, MI 48893",43.7557645,-85.0580028,"[-85.0580028, 43.7557645]","26","073","000100","26073000100","1",Census Tract 1,G5020,S,"278183674","2254174","+43.7733876","-084.9198778"
"2731 East Grass Lake Road, CLARE, MI 48617",43.7863453,-84.7921911,"[-84.7921911, 43.7863453]","26","073","000100","26073000100","1",Census Tract 1,G5020,S,"278183674","2254174","+43.7733876","-084.9198778"
"8507 S WINN RD, WINN, MI 48896",43.5198032,-84.9058953,"[-84.9058953, 43.51980320000001]","26","073","000300","26073000300","3",Census Tract 3,G5020,S,"279045463","723777","+43.5046203","-084.9075268"
"109 S 3rd St, BLANCHARD, MI 49310",43.5216891,-85.0798559,"[-85.07985590000001, 43.5216891]","26","073","000300","26073000300","3",Census Tract 3,G5020,S,"279045463","723777","+43.5046203","-084.9075268"
"4615 South Summerton Rd, MOUNT PLEASANT, MI 48858",43.5747913,-84.7262072,"[-84.72620719999999, 43.5747913]","26","073","000900","26073000900","9",Census Tract 9,G5020,S,"133682343","404274","+43.5287645","-084.6675098"
"4520 LAKE PLEASANT RD, OSSEO, MI 49266",41.8620916,-84.5685231,"[-84.5685231, 41.8620916]","26","059","051000","26059051000","510",Census Tract 510,G5020,S,"180209917","1877656","+41.8571039","-084.4750647"
"104 N. Second Street, PITTSFORD, MI 49271",41.8641561,-84.4741009,"[-84.4741009, 41.8641561]","26","059","051000","26059051000","510",Census Tract 510,G5020,S,"180209917","1877656","+41.8571039","-084.4750647"
"6550 Meridian Rd, HUDSON, MI 49247",41.8322738,-84.3616414,"[-84.3616414, 41.8322738]","26","059","051000","26059051000","510",Census Tract 510,G5020,S,"180209917","1877656","+41.8571039","-084.4750647"
"9610 Beecher Road, PITTSFORD, MI 49271",41.8844992,-84.4662145,"[-84.46621449999999, 41.8844992]","26","059","051000","26059051000","510",Census Tract 510,G5020,S,"180209917","1877656","+41.8571039","-084.4750647"
"8949 Culbert Road, OSSEO, MI 49266",41.8974702,-84.478145,"[-84.47814500000001, 41.8974702]","26","059","051000","26059051000","510",Census Tract 510,G5020,S,"180209917","1877656","+41.8571039","-084.4750647"
"8701 Culbert Road, OSSEO, MI 49266",41.8974465,-84.4823855,"[-84.48238549999999, 41.8974465]","26","059","051000","26059051000","510",Census Tract 510,G5020,S,"180209917","1877656","+41.8571039","-084.4750647"
"2181 South Pittsford Road, PITTSFORD, MI 49271",41.8938193,-84.474907,"[-84.474907, 41.8938193]","26","059","051000","26059051000","510",Census Tract 510,G5020,S,"180209917","1877656","+41.8571039","-084.4750647"
"2849 South Pittsford Road, PITTSFORD, MI 49271",41.8895299,-84.4743255,"[-84.47432549999999, 41.8895299]","26","059","051000","26059051000","510",Census Tract 510,G5020,S,"180209917","1877656","+41.8571039","-084.4750647"
"11671 TRIPP RD, WALDRON, MI 49288",41.7598871,-84.5142478,"[-84.51424779999999, 41.7598871]","26","059","051100","26059051100","511",Census Tract 511,G5020,S,"270464885","2440194","+41.7495569","-084.5049660"
"11671 South Tripp Road, WALDRON, MI 49299",41.7598871,-84.5142478,"[-84.51424779999999, 41.7598871]","26","059","051100","26059051100","511",Census Tract 511,G5020,S,"270464885","2440194","+41.7495569","-084.5049660"
"6750 MILLBROOK RD, REMUS, MI 49340",43.5535754,-84.9854745,"[-84.9854745, 43.5535754]","26","073","000200","26073000200","2",Census Tract 2,G5020,S,"180351566","4806806","+43.6367839","-085.0233746"
"6900 W BASELINE RD, LAKE ISABELLA, MI 48893",43.6400472,-84.986264,"[-84.98626399999999, 43.6400472]","26","073","000200","26073000200","2",Census Tract 2,G5020,S,"180351566","4806806","+43.6367839","-085.0233746"
"10981 E PICKARD, MOUNT PLEASANT, MI 48804",43.6121708,-84.6283517,"[-84.6283517, 43.6121708]","26","073","940200","26073940200","9402",Census Tract 9402,G5020,S,"231510420","813902","+43.7106450","-084.6649295"
"4725 N ISABELLA RD, ROSEBUSH, MI 48878",43.7098102,-84.748307,"[-84.748307, 43.7098102]","26","073","940100","26073940100","9401",Census Tract 9401,G5020,S,"185515752","1767788","+43.6862564","-084.8451930"
"5180 W WEIDMAN RD, WEIDMAN, MI 48893",43.6857143,-84.952044,"[-84.952044, 43.6857143]","26","073","940100","26073940100","9401",Census Tract 9401,G5020,S,"185515752","1767788","+43.6862564","-084.8451930"
"P.O. BOX 411, MOUNT PLEASANT, MI 48804",43.6026818,-84.777774,"[-84.777774, 43.60268180000001]","26","073","940500","26073940500","9405",Census Tract 9405,G5020,S,"1674276","39982","+43.6006358","-084.7811238"
"2221 E LUDINTON AVE, CLARE, MI 48617",43.826845,-84.801506,"[-84.80150599999999, 43.826845]","26","035","000600","26035000600","6",Census Tract 6,G5020,S,"16259582","328727","+43.8263370","-084.7833960"
"3820  Plaza Drive, ANN ARBOR, MI 48108",42.2297649,-83.7486734,"[-83.7486734, 42.2297649]","26","161","414700","26161414700","4147",Census Tract 4147,G5020,S,"2249544","0","+42.2354635","-083.7536248"
"793 AIRPORT BLVD, ANN ARBOR, MI 48108",42.2317563,-83.7442205,"[-83.7442205, 42.2317563]","26","161","414700","26161414700","4147",Census Tract 4147,G5020,S,"2249544","0","+42.2354635","-083.7536248"
"3808 PLAZA DRIVE, ANN ARBOR, MI 48108",42.2301939,-83.7480925,"[-83.7480925, 42.2301939]","26","161","414700","26161414700","4147",Census Tract 4147,G5020,S,"2249544","0","+42.2354635","-083.7536248"
"1200 W 3 MILE RD, SAULT S MARIE, MI 49783",46.4630474,-84.3875311,"[-84.38753109999999, 46.4630474]","26","033","970500","26033970500","9705",Census Tract 9705,G5020,S,"22758945","8516484","+46.4730776","-084.3970042"
"1564 W. Storey Row, SAULT S MARIE, MI 49783",46.4670696,-84.3552259,"[-84.3552259, 46.46706959999999]","26","033","970500","26033970500","9705",Census Tract 9705,G5020,S,"22758945","8516484","+46.4730776","-084.3970042"
"1322 West 3 Mile Road, SAULT S MARIE, MI 49783",46.4630524,-84.3902984,"[-84.39029839999999, 46.4630524]","26","033","970500","26033970500","9705",Census Tract 9705,G5020,S,"22758945","8516484","+46.4730776","-084.3970042"
"2810 W 4th Avenue, SAULT S MARIE, MI 49783",46.4882142,-84.4141792,"[-84.41417919999999, 46.48821419999999]","26","033","970500","26033970500","9705",Census Tract 9705,G5020,S,"22758945","8516484","+46.4730776","-084.3970042"
"4646 I 75 Business Spur, SAULT S MARIE, MI 49783",46.4656695,-84.3814796,"[-84.38147959999999, 46.4656695]","26","033","970500","26033970500","9705",Census Tract 9705,G5020,S,"22758945","8516484","+46.4730776","-084.3970042"
"16770 South Watertower Drive, KINCHELOE, MI 49788",46.2629149,-84.4677,"[-84.4677, 46.2629149]","26","033","970900","26033970900","9709",Census Tract 9709,G5020,S,"21268902","91948","+46.2613063","-084.4725357"
"436 QUAY ST, KINCHELOE, MI 49788",46.2521245,-84.4593233,"[-84.4593233, 46.2521245]","26","033","970900","26033970900","9709",Census Tract 9709,G5020,S,"21268902","91948","+46.2613063","-084.4725357"
"17422 S DOLAN STREET, KINCHELOE, MI 49788",46.253102,-84.4622721,"[-84.4622721, 46.253102]","26","033","970900","26033970900","9709",Census Tract 9709,G5020,S,"21268902","91948","+46.2613063","-084.4725357"
"BLDG 434 DOLAN ST, KINCHELOE, MI 49788",46.2520522,-84.4611713,"[-84.4611713, 46.2520522]","26","033","970900","26033970900","9709",Census Tract 9709,G5020,S,"21268902","91948","+46.2613063","-084.4725357"
"16794 S HUGGININ ROAD, KINROSS, MI 49788",46.260954,-84.4745012,"[-84.47450119999999, 46.260954]","26","033","970900","26033970900","9709",Census Tract 9709,G5020,S,"21268902","91948","+46.2613063","-084.4725357"
"CHIPPEWA COUNTY INTERNATIONAL AIRPORT, KINROSS, MI 49788",46.2577577,-84.4744174,"[-84.4744174, 46.2577577]","26","033","970900","26033970900","9709",Census Tract 9709,G5020,S,"21268902","91948","+46.2613063","-084.4725357"
"4311 E. Ashman St., MIDLAND, MI 48642",43.6314037,-84.174539,"[-84.174539, 43.6314037]","26","111","291104","26111291104","2911.04",Census Tract 2911.04,G5020,S,"68554717","32543","+43.7051419","-084.2080786"
"1930 STARK RD, MIDLAND, MI 48640",43.6675561,-84.3089236,"[-84.3089236, 43.6675561]","26","111","291103","26111291103","2911.03",Census Tract 2911.03,G5020,S,"77424511","308881","+43.6945833","-084.3171846"
"1565 VIRGINIA DR, MIDLAND, MI 48640",43.6682354,-84.3072961,"[-84.3072961, 43.6682354]","26","111","291103","26111291103","2911.03",Census Tract 2911.03,G5020,S,"77424511","308881","+43.6945833","-084.3171846"
"1928 STARK RD, MIDLAND, MI 48640",43.6671397,-84.3089199,"[-84.30891989999999, 43.6671397]","26","111","291103","26111291103","2911.03",Census Tract 2911.03,G5020,S,"77424511","308881","+43.6945833","-084.3171846"
"62 East Saginaw Road, SANFORD, MI 48657",43.6660906,-84.3654181,"[-84.3654181, 43.6660906]","26","111","291103","26111291103","2911.03",Census Tract 2911.03,G5020,S,"77424511","308881","+43.6945833","-084.3171846"
"7600 WEST WACKERLY STREET, MIDLAND, MI 48642",43.6571683,-84.3172234,"[-84.3172234, 43.6571683]","26","111","291103","26111291103","2911.03",Census Tract 2911.03,G5020,S,"77424511","308881","+43.6945833","-084.3171846"
"PO BOX 529, DRUMMOND IS, MI 49726",46.0205456,-83.7331233,"[-83.7331233, 46.0205456]","26","033","971100","26033971100","9711",Census Tract 9711,G5020,S,"394414342","352001799","+46.0082202","-083.7151203"
"836 HIGHWAY M-134, DETOUR, MI 49725",45.9769327,-83.9181911,"[-83.9181911, 45.9769327]","26","033","971100","26033971100","9711",Census Tract 9711,G5020,S,"394414342","352001799","+46.0082202","-083.7151203"
"26396 East Gable Road, DRUMMOND IS, MI 49726",46.0053581,-83.8346657,"[-83.8346657, 46.0053581]","26","033","971100","26033971100","9711",Census Tract 9711,G5020,S,"394414342","352001799","+46.0082202","-083.7151203"
"217 Division Street, DE TOUR VLLE, MI 49725",45.996346,-83.9056045,"[-83.9056045, 45.996346]","26","033","971100","26033971100","9711",Census Tract 9711,G5020,S,"394414342","352001799","+46.0082202","-083.7151203"
"HC Tourist Road, DRUMMOND IS, MI 49726",46.0359733,-83.7052497,"[-83.7052497, 46.0359733]","26","033","971100","26033971100","9711",Census Tract 9711,G5020,S,"394414342","352001799","+46.0082202","-083.7151203"
"951 COUNTY ST, MILAN, MI 48160",42.0861285,-83.6677551,"[-83.6677551, 42.0861285]","26","161","421100","26161421100","4211",Census Tract 4211,G5020,S,"2876121","74013","+42.0905586","-083.6834968"
"640 ASH ST, MILAN, MI 48160",42.090414,-83.6881636,"[-83.6881636, 42.090414]","26","161","421100","26161421100","4211",Census Tract 4211,G5020,S,"2876121","74013","+42.0905586","-083.6834968"
"100 Big Red Dr, MILAN, MI 48160",42.0853204,-83.6824384,"[-83.6824384, 42.0853204]","26","161","421100","26161421100","4211",Census Tract 4211,G5020,S,"2876121","74013","+42.0905586","-083.6834968"
"Collins Rd., MANISTEE, MI 49660",44.32698,-86.161871,"[-86.161871, 44.32698]","26","101","000400","26101000400","4",Census Tract 4,G5020,S,"100031485","7661705","+44.3121435","-086.2257453"
"4000  Fisk Rd., MANISTEE, MI 49660",44.2924647,-86.2131833,"[-86.2131833, 44.2924647]","26","101","000400","26101000400","4",Census Tract 4,G5020,S,"100031485","7661705","+44.3121435","-086.2257453"
"SCHOEDEL RD, MANISTEE TWP, MI 49660",44.3169811,-86.2272614,"[-86.2272614, 44.3169811]","26","101","000400","26101000400","4",Census Tract 4,G5020,S,"100031485","7661705","+44.3121435","-086.2257453"
"SCHOEDEL RD, MANISTEE, MI 49660",44.3169811,-86.2272614,"[-86.2272614, 44.3169811]","26","101","000400","26101000400","4",Census Tract 4,G5020,S,"100031485","7661705","+44.3121435","-086.2257453"
"6171 CHIPPEWA HWY, MANISTEE, MI 49660",44.3326188,-86.1691585,"[-86.16915850000001, 44.3326188]","26","101","000400","26101000400","4",Census Tract 4,G5020,S,"100031485","7661705","+44.3121435","-086.2257453"
"SUIDA RD, MANISTEE, MI 49660",44.2917415,-86.2834745,"[-86.2834745, 44.2917415]","26","101","000400","26101000400","4",Census Tract 4,G5020,S,"100031485","7661705","+44.3121435","-086.2257453"
"7836 CHIPPEWA HWY, KALEVA, MI 49645",44.3573231,-86.1624511,"[-86.1624511, 44.3573231]","26","101","000400","26101000400","4",Census Tract 4,G5020,S,"100031485","7661705","+44.3121435","-086.2257453"
"2236 Hill Road, MANISTEE, MI 49660",44.2812974,-86.3058499,"[-86.3058499, 44.2812974]","26","101","000400","26101000400","4",Census Tract 4,G5020,S,"100031485","7661705","+44.3121435","-086.2257453"
"1505 East Parkdale Avenue, MANISTEE, MI 49660",44.271649,-86.2725455,"[-86.27254549999999, 44.271649]","26","101","000400","26101000400","4",Census Tract 4,G5020,S,"100031485","7661705","+44.3121435","-086.2257453"
"1465 E Parkdale Avenue, MANISTEE, MI 49660",44.2721047,-86.2737372,"[-86.2737372, 44.27210470000001]","26","101","000400","26101000400","4",Census Tract 4,G5020,S,"100031485","7661705","+44.3121435","-086.2257453"
"1800  Eastlake Rd., MANISTEE, MI 49660",44.2264554,-86.2890455,"[-86.2890455, 44.2264554]","26","101","000700","26101000700","7",Census Tract 7,G5020,S,"98445311","8335374","+44.2053249","-086.2744813"
"1501 Main St., MANISTEE, MI 49660",44.2331885,-86.3031075,"[-86.3031075, 44.2331885]","26","101","000700","26101000700","7",Census Tract 7,G5020,S,"98445311","8335374","+44.2053249","-086.2744813"
"180  6th Street, MANISTEE, MI 49660",44.2419017,-86.310259,"[-86.310259, 44.2419017]","26","101","000700","26101000700","7",Census Tract 7,G5020,S,"98445311","8335374","+44.2053249","-086.2744813"
"2246  Udell St., FILER CITY, MI 49634",44.2122165,-86.2855629,"[-86.2855629, 44.2122165]","26","101","000700","26101000700","7",Census Tract 7,G5020,S,"98445311","8335374","+44.2053249","-086.2744813"
"700  Mee Street, FILER CITY, MI 49634",44.217282,-86.2888934,"[-86.28889339999999, 44.217282]","26","101","000700","26101000700","7",Census Tract 7,G5020,S,"98445311","8335374","+44.2053249","-086.2744813"
"159 BRICKYARD RD BUILDING B, MANISTEE, MI 49660",44.2499695,-86.2940504,"[-86.29405039999999, 44.2499695]","26","101","000700","26101000700","7",Census Tract 7,G5020,S,"98445311","8335374","+44.2053249","-086.2744813"
"3890 CAMP ROAD, MANISTEE, MI 49660",44.1914223,-86.2651786,"[-86.2651786, 44.1914223]","26","101","000700","26101000700","7",Census Tract 7,G5020,S,"98445311","8335374","+44.2053249","-086.2744813"
"1735 State Street, MANISTEE, MI 49660",44.2307435,-86.3024527,"[-86.30245269999999, 44.2307435]","26","101","000700","26101000700","7",Census Tract 7,G5020,S,"98445311","8335374","+44.2053249","-086.2744813"
"270 Merkey Road E, MANISTEE, MI 49660",44.2273443,-86.3096008,"[-86.3096008, 44.2273443]","26","101","000700","26101000700","7",Census Tract 7,G5020,S,"98445311","8335374","+44.2053249","-086.2744813"
"200 East River Street, MANISTEE, MI 49660",44.2511712,-86.3133173,"[-86.3133173, 44.25117119999999]","26","101","000700","26101000700","7",Census Tract 7,G5020,S,"98445311","8335374","+44.2053249","-086.2744813"
"3375 West Fox Farm Road, FILER TWP, MI 49634",44.191198,-86.31533,"[-86.31533, 44.191198]","26","101","000700","26101000700","7",Census Tract 7,G5020,S,"98445311","8335374","+44.2053249","-086.2744813"
"MANISTEE TWP SEC 12, MANISTEE, MI 49000",44.2444473,-86.324253,"[-86.324253, 44.2444473]","26","101","000800","26101000800","8",Census Tract 8,G5020,S,"5785841","1280963","+44.2381477","-086.3335642"
"Lot 5 Manistee Renaissance Industrial Pa, MANISTEE, MI 49660",44.2421963,-86.32063,"[-86.32063, 44.2421963]","26","101","000800","26101000800","8",Census Tract 8,G5020,S,"5785841","1280963","+44.2381477","-086.3335642"
"12783 Big Four Road, MANISTEE, MI 49660",44.2444473,-86.324253,"[-86.324253, 44.2444473]","26","101","000800","26101000800","8",Census Tract 8,G5020,S,"5785841","1280963","+44.2381477","-086.3335642"
"T22N R15W SEC 10 NE SW NW, MANISTEE, MI 49660",44.2444473,-86.324253,"[-86.324253, 44.2444473]","26","101","000800","26101000800","8",Census Tract 8,G5020,S,"5785841","1280963","+44.2381477","-086.3335642"
"NW SE SW SEC 7, MANISTEE, MI 49660",44.2394283,-86.3200078,"[-86.3200078, 44.2394283]","26","101","000800","26101000800","8",Census Tract 8,G5020,S,"5785841","1280963","+44.2381477","-086.3335642"
"385 3rd Street, MANISTEE, MI 49660",44.243855,-86.3227015,"[-86.3227015, 44.243855]","26","101","000800","26101000800","8",Census Tract 8,G5020,S,"5785841","1280963","+44.2381477","-086.3335642"
"Unknown, MANISTEE, MI 49660",44.2444473,-86.324253,"[-86.324253, 44.2444473]","26","101","000800","26101000800","8",Census Tract 8,G5020,S,"5785841","1280963","+44.2381477","-086.3335642"
"335  Washington St., MANISTEE, MI 49660",44.2633198,-86.3221865,"[-86.3221865, 44.2633198]","26","101","000900","26101000900","9",Census Tract 9,G5020,S,"3718945","3643776","+44.2754880","-086.3183222"
"330 N. WASHINGTON St., MANISTEE, MI 49660",44.2618474,-86.3232637,"[-86.3232637, 44.2618474]","26","101","000900","26101000900","9",Census Tract 9,G5020,S,"3718945","3643776","+44.2754880","-086.3183222"
"315 Washington St, MANISTEE, MI 49660",44.2590757,-86.3223846,"[-86.32238459999999, 44.2590757]","26","101","000900","26101000900","9",Census Tract 9,G5020,S,"3718945","3643776","+44.2754880","-086.3183222"
"290 WASHINGTON ST, MANISTEE, MI 49660",44.2584256,-86.324009,"[-86.32400899999999, 44.2584256]","26","101","000900","26101000900","9",Census Tract 9,G5020,S,"3718945","3643776","+44.2754880","-086.3183222"
"6th & Daniels Street, MANISTEE, MI 49660",44.2488619,-86.3266414,"[-86.3266414, 44.2488619]","26","101","000900","26101000900","9",Census Tract 9,G5020,S,"3718945","3643776","+44.2754880","-086.3183222"
"1020 Veterans Oak Grove, MANISTEE, MI 49660",44.2655496,-86.3203708,"[-86.32037079999999, 44.2655496]","26","101","000900","26101000900","9",Census Tract 9,G5020,S,"3718945","3643776","+44.2754880","-086.3183222"
"7614 Adamson Lake Rd., BEAR LAKE, MI 49614",44.3530585,-86.1426222,"[-86.14262219999999, 44.3530585]","26","101","000500","26101000500","5",Census Tract 5,G5020,S,"363091934","6469839","+44.3017916","-086.0259971"
"6660 RIVER RD, MANISTEE, MI 49660",44.3025782,-86.168417,"[-86.16841699999999, 44.3025782]","26","101","000500","26101000500","5",Census Tract 5,G5020,S,"363091934","6469839","+44.3017916","-086.0259971"
"1200 CABERFAE HIGHWAY / M-55, MANISTEE, MI 49660",44.2459122,-86.2782469,"[-86.27824690000001, 44.2459122]","26","101","000500","26101000500","5",Census Tract 5,G5020,S,"363091934","6469839","+44.3017916","-086.0259971"
"Eight Mile Rd, KALEVA, MI 49645",44.3585749,-86.1217558,"[-86.1217558, 44.3585749]","26","101","000500","26101000500","5",Census Tract 5,G5020,S,"363091934","6469839","+44.3017916","-086.0259971"
"1965 PINE CREEK RD, MANISTEE, MI 49660",44.24667,-86.2646233,"[-86.2646233, 44.24666999999999]","26","101","000500","26101000500","5",Census Tract 5,G5020,S,"363091934","6469839","+44.3017916","-086.0259971"
"1200 Caberfae Hwy., MANISTEE, MI 49660",44.2459122,-86.2782469,"[-86.27824690000001, 44.2459122]","26","101","000500","26101000500","5",Census Tract 5,G5020,S,"363091934","6469839","+44.3017916","-086.0259971"
"11127  11 MILE RD, BEAR LAKE, MI 49614",44.4003206,-86.0730278,"[-86.07302779999999, 44.4003206]","26","101","000300","26101000300","3",Census Tract 3,G5020,S,"106490305","13264698","+44.3959365","-086.1720676"
"9536 Nine Mile Rd., BEAR LAKE, MI 49614",44.3714082,-86.0719056,"[-86.0719056, 44.3714082]","26","101","000300","26101000300","3",Census Tract 3,G5020,S,"106490305","13264698","+44.3959365","-086.1720676"
"9 Mile Rd, BEAR LAKE TWP, MI 49614",44.373065,-86.1213609,"[-86.1213609, 44.373065]","26","101","000300","26101000300","3",Census Tract 3,G5020,S,"106490305","13264698","+44.3959365","-086.1720676"
"HILLARD 1 26A NE SEC 26 T26N R10W, BEAR LAKE TWP, MI 49614",44.3900108,-86.1141045,"[-86.1141045, 44.39001080000001]","26","101","000300","26101000300","3",Census Tract 3,G5020,S,"106490305","13264698","+44.3959365","-086.1720676"
"NE 1/4 PF NE 1/4 SEC 4, MANISTEE TWP, MI 49675",44.3836478,-86.2056843,"[-86.2056843, 44.3836478]","26","101","000300","26101000300","3",Census Tract 3,G5020,S,"106490305","13264698","+44.3959365","-086.1720676"
"NE NE NE SEC 28, BEAR LAKE TWP, MI 49614",44.3900108,-86.1141045,"[-86.1141045, 44.39001080000001]","26","101","000300","26101000300","3",Census Tract 3,G5020,S,"106490305","13264698","+44.3959365","-086.1720676"
"Viaduct Rd., COPEMISH, MI 49625",44.4610416,-85.8385751,"[-85.8385751, 44.4610416]","26","101","000100","26101000100","1",Census Tract 1,G5020,S,"366172417","1359777","+44.4339179","-085.9565565"
"10326 Healy Lake Rd., KALEVA, MI 49645",44.3888861,-86.01042,"[-86.01042, 44.3888861]","26","101","000100","26101000100","1",Census Tract 1,G5020,S,"366172417","1359777","+44.4339179","-085.9565565"
"17863 Plagany Rd, COPEMISH, MI 49625",44.4479466,-85.9494754,"[-85.9494754, 44.44794659999999]","26","101","000100","26101000100","1",Census Tract 1,G5020,S,"366172417","1359777","+44.4339179","-085.9565565"
"17443 PLEASANTON HWY, BEAR LAKE, MI 49614",44.4940256,-86.1058686,"[-86.1058686, 44.4940256]","26","101","000100","26101000100","1",Census Tract 1,G5020,S,"366172417","1359777","+44.4339179","-085.9565565"
"ERWIN RD CLEON TWP, COPEMISH, MI 49625",44.4604012,-85.8987419,"[-85.8987419, 44.4604012]","26","101","000100","26101000100","1",Census Tract 1,G5020,S,"366172417","1359777","+44.4339179","-085.9565565"
"14360 Industrial Drive, KALEVA, MI 49645",44.3750256,-86.0164053,"[-86.0164053, 44.3750256]","26","101","000100","26101000100","1",Census Tract 1,G5020,S,"366172417","1359777","+44.4339179","-085.9565565"
"14407 INDUSTRIAL DR, KALEVA, MI 49645",44.3762387,-86.0137518,"[-86.0137518, 44.37623869999999]","26","101","000100","26101000100","1",Census Tract 1,G5020,S,"366172417","1359777","+44.4339179","-085.9565565"
"HEALY LAKE RD, KALEVA, MI 49645",44.3795408,-86.0102611,"[-86.0102611, 44.3795408]","26","101","000100","26101000100","1",Census Tract 1,G5020,S,"366172417","1359777","+44.4339179","-085.9565565"
"Marilla Rd, CLEON TWP, MI 49625",44.4251168,-85.8792584,"[-85.8792584, 44.4251168]","26","101","000100","26101000100","1",Census Tract 1,G5020,S,"366172417","1359777","+44.4339179","-085.9565565"
"Lahti Rd, KALEVA, MI 49645",44.3918129,-86.0298197,"[-86.0298197, 44.3918129]","26","101","000100","26101000100","1",Census Tract 1,G5020,S,"366172417","1359777","+44.4339179","-085.9565565"
"READ RD AND THOMPSONVILLE RD, CLEON TWP, MI 49625",44.4693766,-85.9348702,"[-85.93487019999999, 44.4693766]","26","101","000100","26101000100","1",Census Tract 1,G5020,S,"366172417","1359777","+44.4339179","-085.9565565"
"SW SEC 9, T23N, R14W, MAPLE GRV TWP, MI 49645",44.377423,-86.0223611,"[-86.0223611, 44.377423]","26","101","000100","26101000100","1",Census Tract 1,G5020,S,"366172417","1359777","+44.4339179","-085.9565565"
"18615 Nessen City Rd., COPEMISH, MI 49625",44.5060755,-85.8937818,"[-85.8937818, 44.5060755]","26","101","000100","26101000100","1",Census Tract 1,G5020,S,"366172417","1359777","+44.4339179","-085.9565565"
"SE 1/4 SECTION 15 T24N R13W, CLEON TWP, MI 49625",44.4568465,-85.8690933,"[-85.8690933, 44.4568465]","26","101","000100","26101000100","1",Census Tract 1,G5020,S,"366172417","1359777","+44.4339179","-085.9565565"
"T24N R14W SECTION 28, SPRINGDALE TWP, MI 49614",44.4612088,-85.9917437,"[-85.9917437, 44.4612088]","26","101","000100","26101000100","1",Census Tract 1,G5020,S,"366172417","1359777","+44.4339179","-085.9565565"
"16962 VONDRA RD, THOMPSONVILLE, MI 49683",44.4999012,-85.9594227,"[-85.95942269999999, 44.4999012]","26","101","000100","26101000100","1",Census Tract 1,G5020,S,"366172417","1359777","+44.4339179","-085.9565565"
"SE SW SW SEC15, SPRINGDALE TWP, MI 49625",44.4568465,-85.8690933,"[-85.8690933, 44.4568465]","26","101","000100","26101000100","1",Census Tract 1,G5020,S,"366172417","1359777","+44.4339179","-085.9565565"
"NW SW SE SEC 16, SPRINGDALE TWP, MI 49614",44.4612088,-85.9917437,"[-85.9917437, 44.4612088]","26","101","000100","26101000100","1",Census Tract 1,G5020,S,"366172417","1359777","+44.4339179","-085.9565565"
"SEC 26, PLEASANTON TWP, MI 49614",44.4654295,-86.1141045,"[-86.1141045, 44.4654295]","26","101","000100","26101000100","1",Census Tract 1,G5020,S,"366172417","1359777","+44.4339179","-085.9565565"
"T23N R15W Sec8, SW NW SE, BEAR LAKE TWP, MI 49645",44.377423,-86.0223611,"[-86.0223611, 44.377423]","26","101","000100","26101000100","1",Census Tract 1,G5020,S,"366172417","1359777","+44.4339179","-085.9565565"
"Sec 21 T24N R13W, CLEON TWP, MI 49660",44.4568465,-85.8690933,"[-85.8690933, 44.4568465]","26","101","000100","26101000100","1",Census Tract 1,G5020,S,"366172417","1359777","+44.4339179","-085.9565565"
"14450 North Walta Street, KALEVA, MI 49645",44.3752861,-86.0106478,"[-86.0106478, 44.3752861]","26","101","000100","26101000100","1",Census Tract 1,G5020,S,"366172417","1359777","+44.4339179","-085.9565565"
"10156 Wiitala Road, COPEMISH, MI 49625",44.3825996,-85.9318028,"[-85.93180280000001, 44.3825996]","26","101","000100","26101000100","1",Census Tract 1,G5020,S,"366172417","1359777","+44.4339179","-085.9565565"
"T24N R15W Sec 15 NW SE NE, PLEASANTON TWP, MI 49614",44.4654295,-86.1141045,"[-86.1141045, 44.4654295]","26","101","000100","26101000100","1",Census Tract 1,G5020,S,"366172417","1359777","+44.4339179","-085.9565565"
"825 S WHITAKER ST, NEW BUFFALO, MI 49117",41.7939302,-86.7439154,"[-86.74391539999999, 41.7939302]","26","021","011302","26021011302","113.02",Census Tract 113.02,G5020,S,"8582223","2896702","+41.7784661","-086.7782942"
"3840 LIVINGSTON RD, BRIDGMAN, MI 49106",41.9680958,-86.5462803,"[-86.54628029999999, 41.9680958]","26","021","011101","26021011101","111.01",Census Tract 111.01,G5020,S,"30078429","6773292","+41.9545171","-086.5567138"
"ONE COOK PLACE, BRIDGMAN, MI 49106",41.9792799,-86.5533109,"[-86.5533109, 41.9792799]","26","021","011101","26021011101","111.01",Census Tract 111.01,G5020,S,"30078429","6773292","+41.9545171","-086.5567138"
"9970 RED ARROW HWY, BRIDGMAN, MI 49106",41.9377808,-86.5683052,"[-86.5683052, 41.9377808]","26","021","011101","26021011101","111.01",Census Tract 111.01,G5020,S,"30078429","6773292","+41.9545171","-086.5567138"
"9890 Red Arrow Hwy, BRIDGMAN, MI 49106",41.9395071,-86.5664915,"[-86.5664915, 41.9395071]","26","021","011101","26021011101","111.01",Census Tract 111.01,G5020,S,"30078429","6773292","+41.9545171","-086.5567138"
"3000 Block of Lemon Creek RD, BRIDGMAN, MI 49106",41.9573212,-86.525989,"[-86.525989, 41.9573212]","26","021","011101","26021011101","111.01",Census Tract 111.01,G5020,S,"30078429","6773292","+41.9545171","-086.5567138"
"9850 RED ARROW HWY, BRIDGMAN, MI 49106",41.940511,-86.5664127,"[-86.5664127, 41.940511]","26","021","011101","26021011101","111.01",Census Tract 111.01,G5020,S,"30078429","6773292","+41.9545171","-086.5567138"
"9864 CHURCH ST, BRIDGMAN, MI 49106",41.939841,-86.554641,"[-86.55464099999999, 41.939841]","26","021","011102","26021011102","111.02",Census Tract 111.02,G5020,S,"25667113","109260","+41.9106481","-086.5479072"
"11365 RED ARROW HWY., BRIDGMAN, MI 49106",41.913307,-86.5823787,"[-86.58237869999999, 41.913307]","26","021","011102","26021011102","111.02",Census Tract 111.02,G5020,S,"25667113","109260","+41.9106481","-086.5479072"
"10291 RED ARROW HWY, BRIDGMAN, MI 49106",41.932044,-86.5695825,"[-86.5695825, 41.932044]","26","021","011102","26021011102","111.02",Census Tract 111.02,G5020,S,"25667113","109260","+41.9106481","-086.5479072"
"16736 S Avery Rd, THREE OAKS, MI 49128",41.8352393,-86.5747236,"[-86.5747236, 41.8352393]","26","021","011202","26021011202","112.02",Census Tract 112.02,G5020,S,"33757299","564228","+41.8526962","-086.6059947"
"R9W  T14N Sec 12, MECOSTA, MI 49332",41.8006819,-86.7207646,"[-86.7207646, 41.8006819]","26","021","011301","26021011301","113.01",Census Tract 113.01,G5020,S,"49720303","2546823","+41.7922313","-086.7072819"
"238 N West ST, COLOMA, MI 49038",42.1878268,-86.3083126,"[-86.3083126, 42.1878268]","26","021","010201","26021010201","102.01",Census Tract 102.01,G5020,S,"35154897","642636","+42.1969587","-086.3246508"
"13145 Red Arrow Hwy, SAWYER, MI 49125",41.8799037,-86.6126999,"[-86.6126999, 41.8799037]","26","021","011201","26021011201","112.01",Census Tract 112.01,G5020,S,"23058706","6325761","+41.8627493","-086.6415435"
"13092 RED ARROW HIGHWAY, SAWYER, MI 49125",41.8804589,-86.6131332,"[-86.6131332, 41.8804589]","26","021","011201","26021011201","112.01",Census Tract 112.01,G5020,S,"23058706","6325761","+41.8627493","-086.6415435"
"622  LANGLEY AVE, SAINT JOSEPH, MI 49085",42.103447,-86.4763155,"[-86.4763155, 42.103447]","26","021","000802","26021000802","8.02",Census Tract 8.02,G5020,S,"2134307","249269","+42.1021691","-086.4794266"
"Station #4357, SAINT JOSEPH, MI 49085",42.0938577,-86.4895463,"[-86.4895463, 42.0938577]","26","021","000802","26021000802","8.02",Census Tract 8.02,G5020,S,"2134307","249269","+42.1021691","-086.4794266"
"233 and 235 Broad St, SAINT JOSEPH, MI 49085",42.1104868,-86.4844452,"[-86.4844452, 42.1104868]","26","021","000801","26021000801","8.01",Census Tract 8.01,G5020,S,"3119414","3214098","+42.1089494","-086.4881780"
"481 RENAISSANCE DR, SAINT JOSEPH, MI 49085",42.1167959,-86.475091,"[-86.47509099999999, 42.1167959]","26","021","000801","26021000801","8.01",Census Tract 8.01,G5020,S,"3119414","3214098","+42.1089494","-086.4881780"
"425 STATE ST, SAINT JOSEPH, MI 49085",42.1078867,-86.4827141,"[-86.4827141, 42.10788669999999]","26","021","000801","26021000801","8.01",Census Tract 8.01,G5020,S,"3119414","3214098","+42.1089494","-086.4881780"
"303 UPTON DRIVE, SAINT JOSEPH, MI 49085",42.1171362,-86.478646,"[-86.478646, 42.1171362]","26","021","000801","26021000801","8.01",Census Tract 8.01,G5020,S,"3119414","3214098","+42.1089494","-086.4881780"
"220 MAIN STREET, SAINT JOSEPH, MI 49085",42.1095262,-86.4808183,"[-86.4808183, 42.1095262]","26","021","000801","26021000801","8.01",Census Tract 8.01,G5020,S,"3119414","3214098","+42.1089494","-086.4881780"
"38 FOURTH ST, COLDWATER, MI 49036",41.9584539,-84.9919112,"[-84.99191119999999, 41.95845389999999]","26","023","951301","26023951301","9513.01",Census Tract 9513.01,G5020,S,"45442064","0","+41.9421632","-084.9592668"
"SE Corner of E State St and N Michigan A, COLDWATER, MI 49036",41.9562587,-84.9809174,"[-84.9809174, 41.9562587]","26","023","951301","26023951301","9513.01",Census Tract 9513.01,G5020,S,"45442064","0","+41.9421632","-084.9592668"
"657 E CHICAGO ROAD, COLDWATER, MI 49036",41.9371651,-84.9513935,"[-84.9513935, 41.9371651]","26","023","951301","26023951301","9513.01",Census Tract 9513.01,G5020,S,"45442064","0","+41.9421632","-084.9592668"
"572 Newton Road, COLDWATER, MI 49036",41.9744642,-84.9667692,"[-84.9667692, 41.9744642]","26","023","951301","26023951301","9513.01",Census Tract 9513.01,G5020,S,"45442064","0","+41.9421632","-084.9592668"
"609 Jonesville Road, COLDWATER, MI 49036",41.9854215,-84.9500052,"[-84.95000519999999, 41.9854215]","26","023","951301","26023951301","9513.01",Census Tract 9513.01,G5020,S,"45442064","0","+41.9421632","-084.9592668"
"4936  State Rd. NE, KALKASKA, MI 49646",44.7715769,-85.073038,"[-85.073038, 44.7715769]","26","079","950202","26079950202","9502.02",Census Tract 9502.02,G5020,S,"158630375","810783","+44.7950696","-085.1473494"
"2170  Rabourn Rd. NE, KALKASKA, MI 49646",44.7718245,-85.1294389,"[-85.1294389, 44.7718245]","26","079","950202","26079950202","9502.02",Census Tract 9502.02,G5020,S,"158630375","810783","+44.7950696","-085.1473494"
"3301 WOOD RD, KALKASKA, MI 49646",44.8009316,-85.1062587,"[-85.1062587, 44.8009316]","26","079","950202","26079950202","9502.02",Census Tract 9502.02,G5020,S,"158630375","810783","+44.7950696","-085.1473494"
"WOOD ROAD, KALKASKA, MI 49646",44.8014398,-85.1013376,"[-85.1013376, 44.8014398]","26","079","950202","26079950202","9502.02",Census Tract 9502.02,G5020,S,"158630375","810783","+44.7950696","-085.1473494"
"County Road 571, KALKASKA, MI 49646",44.7426158,-85.0523647,"[-85.0523647, 44.7426158]","26","079","950202","26079950202","9502.02",Census Tract 9502.02,G5020,S,"158630375","810783","+44.7950696","-085.1473494"
"US HWY 131 and Dorman Rd, RAPID RIV TWP, MI 49646",44.7866613,-85.170733,"[-85.170733, 44.7866613]","26","079","950202","26079950202","9502.02",Census Tract 9502.02,G5020,S,"158630375","810783","+44.7950696","-085.1473494"
"812 WOOD ROAD NW, RAPID CITY, MI 49676",44.8018677,-85.188795,"[-85.188795, 44.8018677]","26","079","950202","26079950202","9502.02",Census Tract 9502.02,G5020,S,"158630375","810783","+44.7950696","-085.1473494"
"3947 US 131 NORTH, KALKASKA, MI 49646",44.771205,-85.161304,"[-85.161304, 44.77120499999999]","26","079","950202","26079950202","9502.02",Census Tract 9502.02,G5020,S,"158630375","810783","+44.7950696","-085.1473494"
"7815 N US 131, KALKASKA, MI 49646",44.8150028,-85.1398977,"[-85.13989769999999, 44.81500279999999]","26","079","950202","26079950202","9502.02",Census Tract 9502.02,G5020,S,"158630375","810783","+44.7950696","-085.1473494"
"499 WOOD ROAD, RAPID CITY, MI 49676",44.8004478,-85.1860796,"[-85.1860796, 44.8004478]","26","079","950202","26079950202","9502.02",Census Tract 9502.02,G5020,S,"158630375","810783","+44.7950696","-085.1473494"
"NE 1/4 Section 10, RAPID RIV TWP, MI 49676",44.8098669,-85.2929384,"[-85.2929384, 44.8098669]","26","079","950201","26079950201","9502.01",Census Tract 9502.01,G5020,S,"68837281","6791842","+44.8196483","-085.2682511"
"5141 S. 184TH STREET, HESPERIA, MI 49421",43.5484039,-86.1004834,"[-86.1004834, 43.5484039]","26","127","010600","26127010600","106",Census Tract 106,G5020,S,"367123946","4585566","+43.5554452","-086.1594917"
"1251 NINTH ST, BALDWIN, MI 49304",43.8978531,-85.8495689,"[-85.8495689, 43.8978531]","26","085","961100","26085961100","9611",Census Tract 9611,G5020,S,"270561305","2379494","+43.8598819","-085.7210355"
"M-37 & 72ND ST, BALDWIN, MI 49304",43.8571938,-85.8514277,"[-85.8514277, 43.8571938]","26","085","961100","26085961100","9611",Census Tract 9611,G5020,S,"270561305","2379494","+43.8598819","-085.7210355"
"5629 SOUTH FORMAN RD, BALDWIN, MI 49304",43.9062138,-85.8043383,"[-85.8043383, 43.9062138]","26","085","961100","26085961100","9611",Census Tract 9611,G5020,S,"270561305","2379494","+43.8598819","-085.7210355"
"301 N Main St, CHASE, MI 49623",43.8878438,-85.6358988,"[-85.6358988, 43.8878438]","26","085","961100","26085961100","9611",Census Tract 9611,G5020,S,"270561305","2379494","+43.8598819","-085.7210355"
"2431 M-37, BALDWIN, MI 49304",43.9433704,-85.8515088,"[-85.85150879999999, 43.9433704]","26","085","961100","26085961100","9611",Census Tract 9611,G5020,S,"270561305","2379494","+43.8598819","-085.7210355"
"32ND ST, WEBBER TWP, MI 49304",43.9296819,-85.864643,"[-85.864643, 43.9296819]","26","085","961200","26085961200","9612",Census Tract 9612,G5020,S,"211636581","6570255","+43.8789608","-085.9435238"
"CSX RAIL YARD 209 EIGHTH ST  PO BOX 641, BALDWIN, MI 49304",43.9011229,-85.8517287,"[-85.8517287, 43.9011229]","26","085","961200","26085961200","9612",Census Tract 9612,G5020,S,"211636581","6570255","+43.8789608","-085.9435238"
"6771 South Astor Road, BALDWIN, MI 49304",43.8893528,-85.8630185,"[-85.8630185, 43.8893528]","26","085","961200","26085961200","9612",Census Tract 9612,G5020,S,"211636581","6570255","+43.8789608","-085.9435238"
"2800  Estes St, NORTON SHORES, MI 49441",43.2014258,-86.2866335,"[-86.2866335, 43.2014258]","26","121","002300","26121002300","23",Census Tract 23,G5020,S,"8297963","9142169","+43.1890424","-086.3115043"
"2669 WICKHAM DR, MUSKEGON, MI 49441",43.2041931,-86.2837155,"[-86.2837155, 43.2041931]","26","121","002300","26121002300","23",Census Tract 23,G5020,S,"8297963","9142169","+43.1890424","-086.3115043"
"2860 MC CRACKEN, MUSKEGON, MI 49443",43.2004019,-86.2923427,"[-86.29234269999999, 43.2004019]","26","121","002300","26121002300","23",Census Tract 23,G5020,S,"8297963","9142169","+43.1890424","-086.3115043"
"2875 LINCOLN ST, MUSKEGON, MI 49441",43.2014772,-86.3045959,"[-86.3045959, 43.2014772]","26","121","002300","26121002300","23",Census Tract 23,G5020,S,"8297963","9142169","+43.1890424","-086.3115043"
"2925 LINCOLN ST, MUSKEGON, MI 49441",43.1999039,-86.3033915,"[-86.30339149999999, 43.1999039]","26","121","002300","26121002300","23",Census Tract 23,G5020,S,"8297963","9142169","+43.1890424","-086.3115043"
"2850 LINCOLN, MUSKEGON, MI 49441",43.2011895,-86.3026588,"[-86.30265879999999, 43.2011895]","26","121","002300","26121002300","23",Census Tract 23,G5020,S,"8297963","9142169","+43.1890424","-086.3115043"
"2817 MCCRACKEN ST, MUSKEGON, MI 49441",43.2017005,-86.2935793,"[-86.29357929999999, 43.2017005]","26","121","002300","26121002300","23",Census Tract 23,G5020,S,"8297963","9142169","+43.1890424","-086.3115043"
"6259 NORTON INDUSTRIAL CT, MUSKEGON, MI 49441",43.1880229,-86.2822324,"[-86.2822324, 43.1880229]","26","121","002400","26121002400","24",Census Tract 24,G5020,S,"5148719","1054256","+43.1844563","-086.2664097"
"1239 E BROADWAY, MUSKEGON, MI 49444",43.2011741,-86.2143229,"[-86.2143229, 43.2011741]","26","121","002601","26121002601","26.01",Census Tract 26.01,G5020,S,"5461346","311600","+43.1886601","-086.2194962"
"848 E BROADWAY, MUSKEGON, MI 49444",43.2017531,-86.2238352,"[-86.2238352, 43.2017531]","26","121","002601","26121002601","26.01",Census Tract 26.01,G5020,S,"5461346","311600","+43.1886601","-086.2194962"
"3584 AIRLINE, MUSKEGON, MI 49444",43.1884944,-86.2309942,"[-86.2309942, 43.1884944]","26","121","002601","26121002601","26.01",Census Tract 26.01,G5020,S,"5461346","311600","+43.1886601","-086.2194962"
"1004 East Broadway Avenu, NORTON SHORES, MI 49444",43.2019226,-86.2197803,"[-86.2197803, 43.2019226]","26","121","002601","26121002601","26.01",Census Tract 26.01,G5020,S,"5461346","311600","+43.1886601","-086.2194962"
"2051 S. Harvey St., MUSKEGON, MI 49443",43.1687799,-86.2055743,"[-86.2055743, 43.1687799]","26","121","002602","26121002602","26.02",Census Tract 26.02,G5020,S,"17684779","867686","+43.1446154","-086.2278325"
"1953 South Harvey Street, MUSKEGON, MI 49442",43.1687799,-86.2055743,"[-86.2055743, 43.1687799]","26","121","002602","26121002602","26.02",Census Tract 26.02,G5020,S,"17684779","867686","+43.1446154","-086.2278325"
"1218 PONTALUNA RD, SPRING LAKE, MI 49456",43.1413761,-86.2125017,"[-86.21250169999999, 43.1413761]","26","121","002602","26121002602","26.02",Census Tract 26.02,G5020,S,"17684779","867686","+43.1446154","-086.2278325"
"1146 N Gateway Boulevard, MUSKEGON, MI 49441",43.1447892,-86.2164055,"[-86.2164055, 43.14478920000001]","26","121","002602","26121002602","26.02",Census Tract 26.02,G5020,S,"17684779","867686","+43.1446154","-086.2278325"
"711 East Porter Road, NORTON SHORES, MI 49441",43.157326,-86.2274421,"[-86.22744209999999, 43.157326]","26","121","002602","26121002602","26.02",Census Tract 26.02,G5020,S,"17684779","867686","+43.1446154","-086.2278325"
"851 East Porter Rd., MUSKEGON, MI 49441",43.1579428,-86.225348,"[-86.225348, 43.1579428]","26","121","002602","26121002602","26.02",Census Tract 26.02,G5020,S,"17684779","867686","+43.1446154","-086.2278325"
"1165 N GATEWAY BLVD, MUSKEGON, MI 49441",43.1434124,-86.2159291,"[-86.2159291, 43.1434124]","26","121","002602","26121002602","26.02",Census Tract 26.02,G5020,S,"17684779","867686","+43.1446154","-086.2278325"
"6870 GRAND HAVEN RD, SPRING LAKE, MI 49456",43.1269955,-86.2201813,"[-86.2201813, 43.1269955]","26","121","002602","26121002602","26.02",Census Tract 26.02,G5020,S,"17684779","867686","+43.1446154","-086.2278325"
"1060 JUDSON RD, MUSKEGON, MI 49441",43.1258188,-86.2191054,"[-86.21910539999999, 43.1258188]","26","121","002602","26121002602","26.02",Census Tract 26.02,G5020,S,"17684779","867686","+43.1446154","-086.2278325"
"888 EAST PORTER RD, MUSKEGON, MI 49441",43.1592964,-86.222996,"[-86.222996, 43.1592964]","26","121","002602","26121002602","26.02",Census Tract 26.02,G5020,S,"17684779","867686","+43.1446154","-086.2278325"
"6430 NORTON CENTER DR, NORTON SHORES, MI 49441",43.1355839,-86.2170408,"[-86.21704079999999, 43.1355839]","26","121","002602","26121002602","26.02",Census Tract 26.02,G5020,S,"17684779","867686","+43.1446154","-086.2278325"
"2431 South Harvey Street, MUSKEGON, MI 49443",43.1687799,-86.2055743,"[-86.2055743, 43.1687799]","26","121","002602","26121002602","26.02",Census Tract 26.02,G5020,S,"17684779","867686","+43.1446154","-086.2278325"
"1251 E MOUNT GARFIELD ROAD, NORTON SHORES, MI 49441",43.1452035,-86.2146149,"[-86.2146149, 43.1452035]","26","121","002602","26121002602","26.02",Census Tract 26.02,G5020,S,"17684779","867686","+43.1446154","-086.2278325"
"16527 Wood Road, LANSING, MI 48906",42.7762327,-84.5215635,"[-84.5215635, 42.7762327]","26","037","010104","26037010104","101.04",Census Tract 101.04,G5020,S,"37779040","315989","+42.8206944","-084.4953501"
"1484 EAST HOWE RD., DEWITT, MI 48820",42.8384092,-84.5330864,"[-84.5330864, 42.8384092]","26","037","010104","26037010104","101.04",Census Tract 101.04,G5020,S,"37779040","315989","+42.8206944","-084.4953501"
"16527 Wood Rd., DEWITT, MI 48906",42.7762327,-84.5215635,"[-84.5215635, 42.7762327]","26","037","010104","26037010104","101.04",Census Tract 101.04,G5020,S,"37779040","315989","+42.8206944","-084.4953501"
"7734 CHILDSDALE RD, ROCKFORD, MI 49341",43.1034355,-85.5758021,"[-85.57580209999999, 43.1034355]","26","081","011002","26081011002","110.02",Census Tract 110.02,G5020,S,"13989941","522999","+43.0815439","-085.5657878"
"3800 7 MILE NE, PLAINFLD TWP, MI 49505",43.0713814,-85.5752998,"[-85.5752998, 43.0713814]","26","081","011002","26081011002","110.02",Census Tract 110.02,G5020,S,"13989941","522999","+43.0815439","-085.5657878"
"169 W PARK ST, FRUITPORT, MI 49415",43.1241233,-86.1601136,"[-86.1601136, 43.1241233]","26","121","002800","26121002800","28",Census Tract 28,G5020,S,"54026156","899069","+43.1431772","-086.1361298"
"5967 MAPLE ISLAND RD, NUNICA, MI 49448",43.1439325,-86.0685875,"[-86.06858749999999, 43.1439325]","26","121","002800","26121002800","28",Census Tract 28,G5020,S,"54026156","899069","+43.1431772","-086.1361298"
"2555  Oak Industrial Drive NE, GRAND RAPIDS, MI 49505",42.9752561,-85.6054175,"[-85.6054175, 42.9752561]","26","081","002300","26081002300","23",Census Tract 23,G5020,S,"5548538","191137","+42.9690856","-085.6146373"
"460  Fuller Ave. NE, GRAND RAPIDS, MI 49503",42.9721271,-85.6386696,"[-85.63866960000001, 42.9721271]","26","081","002300","26081002300","23",Census Tract 23,G5020,S,"5548538","191137","+42.9690856","-085.6146373"
"522  Plymouth Ave. NE, GRAND RAPIDS, MI 49505",42.9722861,-85.6249658,"[-85.6249658, 42.9722861]","26","081","002300","26081002300","23",Census Tract 23,G5020,S,"5548538","191137","+42.9690856","-085.6146373"
"2700 Oak Industrial Drive N.E., GRAND RAPIDS, MI 49505",42.9742715,-85.6024849,"[-85.6024849, 42.9742715]","26","081","002300","26081002300","23",Census Tract 23,G5020,S,"5548538","191137","+42.9690856","-085.6146373"
"507 PLYMOUTH NE, GRAND RAPIDS, MI 49505",42.9717626,-85.6290092,"[-85.6290092, 42.9717626]","26","081","002300","26081002300","23",Census Tract 23,G5020,S,"5548538","191137","+42.9690856","-085.6146373"
"2000 OAK INDUSTRIAL DR, GRAND RAPIDS, MI 49505",42.9745708,-85.6189202,"[-85.61892019999999, 42.9745708]","26","081","002300","26081002300","23",Census Tract 23,G5020,S,"5548538","191137","+42.9690856","-085.6146373"
"522 PLYMOUTH  NE, GRAND RAPIDS, MI 49505",42.9722861,-85.6249658,"[-85.6249658, 42.9722861]","26","081","002300","26081002300","23",Census Tract 23,G5020,S,"5548538","191137","+42.9690856","-085.6146373"
"2351 OAK INDUSTRIAL DR, GRAND RAPIDS, MI 49505",42.9754776,-85.611202,"[-85.61120199999999, 42.9754776]","26","081","002300","26081002300","23",Census Tract 23,G5020,S,"5548538","191137","+42.9690856","-085.6146373"
"530 BALL AVE NE, GRAND RAPIDS, MI 49503",42.9728214,-85.6288566,"[-85.62885659999999, 42.9728214]","26","081","002300","26081002300","23",Census Tract 23,G5020,S,"5548538","191137","+42.9690856","-085.6146373"
"1363 MICHIGAN ST, GRAND RAPIDS, MI 49503",42.970792,-85.635206,"[-85.63520600000001, 42.970792]","26","081","002300","26081002300","23",Census Tract 23,G5020,S,"5548538","191137","+42.9690856","-085.6146373"
"2455 OAK INDUSTRIAL DR, GRAND RAPIDS, MI 49501",42.975246,-85.6091132,"[-85.6091132, 42.975246]","26","081","002300","26081002300","23",Census Tract 23,G5020,S,"5548538","191137","+42.9690856","-085.6146373"
"2320 Oak Industrial Drive NE, GRAND RAPIDS, MI 49505",42.9746532,-85.6124471,"[-85.6124471, 42.97465320000001]","26","081","002300","26081002300","23",Census Tract 23,G5020,S,"5548538","191137","+42.9690856","-085.6146373"
"601 Maryland Avenue NE, GRAND RAPIDS, MI 49505",42.9739066,-85.6117643,"[-85.61176429999999, 42.9739066]","26","081","002300","26081002300","23",Census Tract 23,G5020,S,"5548538","191137","+42.9690856","-085.6146373"
"955  GODFREY Ave. SW, GRAND RAPIDS, MI 49503",42.9451927,-85.6841864,"[-85.6841864, 42.9451927]","26","081","002600","26081002600","26",Census Tract 26,G5020,S,"3643645","187054","+42.9480531","-085.6891445"
"950  Market Ave SW, GRAND RAPIDS, MI 49503",42.9491497,-85.6930811,"[-85.6930811, 42.9491497]","26","081","002600","26081002600","26",Census Tract 26,G5020,S,"3643645","187054","+42.9480531","-085.6891445"
"1100 GODFREY, GRAND RAPIDS, MI 49503",42.9428321,-85.6844978,"[-85.6844978, 42.9428321]","26","081","002600","26081002600","26",Census Tract 26,G5020,S,"3643645","187054","+42.9480531","-085.6891445"
"1300 MARKET AVE SW, GRAND RAPIDS, MI 49503",42.9475987,-85.7023047,"[-85.7023047, 42.9475987]","26","081","002600","26081002600","26",Census Tract 26,G5020,S,"3643645","187054","+42.9480531","-085.6891445"
"1111 GODFREY AVE SW, GRAND RAPIDS, MI 49503",42.9427105,-85.6853,"[-85.6853, 42.9427105]","26","081","002600","26081002600","26",Census Tract 26,G5020,S,"3643645","187054","+42.9480531","-085.6891445"
"1100 MARKET SW, GRAND RAPIDS, MI 49503",42.9481679,-85.6977533,"[-85.6977533, 42.9481679]","26","081","002600","26081002600","26",Census Tract 26,G5020,S,"3643645","187054","+42.9480531","-085.6891445"
"1040 MARKET ST SW, GRAND RAPIDS, MI 49503",42.94807,-85.6802819,"[-85.6802819, 42.94807]","26","081","002600","26081002600","26",Census Tract 26,G5020,S,"3643645","187054","+42.9480531","-085.6891445"
"655 GODFREY SW, PO BOX 7187, GRAND RAPIDS, MI 49510",42.9484342,-85.6838726,"[-85.6838726, 42.9484342]","26","081","002600","26081002600","26",Census Tract 26,G5020,S,"3643645","187054","+42.9480531","-085.6891445"
"675 Chestnut SW, GRAND RAPIDS, MI 49503",42.9512645,-85.686879,"[-85.68687899999999, 42.9512645]","26","081","002600","26081002600","26",Census Tract 26,G5020,S,"3643645","187054","+42.9480531","-085.6891445"
"341 GRAND STREET SW, GRAND RAPIDS, MI 49503",42.9522125,-85.6756723,"[-85.6756723, 42.95221249999999]","26","081","002600","26081002600","26",Census Tract 26,G5020,S,"3643645","187054","+42.9480531","-085.6891445"
"625 CHESTNUT SW, GRAND RAPIDS, MI 49503",42.9515564,-85.6834981,"[-85.6834981, 42.9515564]","26","081","002600","26081002600","26",Census Tract 26,G5020,S,"3643645","187054","+42.9480531","-085.6891445"
"631 CHESTNUT ST SW, GRAND RAPIDS, MI 49503",42.95186,-85.68434,"[-85.68434, 42.95186]","26","081","002600","26081002600","26",Census Tract 26,G5020,S,"3643645","187054","+42.9480531","-085.6891445"
"570 MARKET SW, GRAND RAPIDS, MI 49503",42.952634,-85.685601,"[-85.68560099999999, 42.952634]","26","081","002600","26081002600","26",Census Tract 26,G5020,S,"3643645","187054","+42.9480531","-085.6891445"
"1300 MARKET AVENUE SW, GRAND RAPIDS, MI 49503",42.9475987,-85.7023047,"[-85.7023047, 42.9475987]","26","081","002600","26081002600","26",Census Tract 26,G5020,S,"3643645","187054","+42.9480531","-085.6891445"
"235 Grandville Avenue SW, GRAND RAPIDS, MI 49503",42.9583669,-85.674057,"[-85.67405699999999, 42.9583669]","26","081","002600","26081002600","26",Census Tract 26,G5020,S,"3643645","187054","+42.9480531","-085.6891445"
"669 CENTURY AVE SW, GRAND RAPIDS, MI 49503",42.9507862,-85.6748235,"[-85.6748235, 42.9507862]","26","081","002600","26081002600","26",Census Tract 26,G5020,S,"3643645","187054","+42.9480531","-085.6891445"
"1900  RICHMAN, SMITHS CREEK, MI 48074",42.959521,-82.602102,"[-82.602102, 42.959521]","26","147","634100","26147634100","6341",Census Tract 6341,G5020,S,"60423000","365080","+42.9454241","-082.5922024"
"6779  SMITHS CREEK ROAD, SMITHS CREEK, MI 48074",42.9150131,-82.5938638,"[-82.5938638, 42.9150131]","26","147","634100","26147634100","6341",Census Tract 6341,G5020,S,"60423000","365080","+42.9454241","-082.5922024"
"6695 Lapeer Rd, SMITHS CREEK, MI 48074",42.9910341,-82.6002614,"[-82.6002614, 42.9910341]","26","147","634100","26147634100","6341",Census Tract 6341,G5020,S,"60423000","365080","+42.9454241","-082.5922024"
"6797 SMITHS CREEK ROAD, SMITHS CREEK, MI 48074",42.9174618,-82.5935927,"[-82.5935927, 42.9174618]","26","147","634100","26147634100","6341",Census Tract 6341,G5020,S,"60423000","365080","+42.9454241","-082.5922024"
"750 SCOTT ROAD, KIMBALL TWP, MI 48074",42.9263318,-82.5556193,"[-82.55561929999999, 42.9263318]","26","147","634100","26147634100","6341",Census Tract 6341,G5020,S,"60423000","365080","+42.9454241","-082.5922024"
"10021  MARINE CITY HWY., IRA TWP, MI 48023",42.7195128,-82.7155665,"[-82.7155665, 42.7195128]","26","147","650100","26147650100","6501",Census Tract 6501,G5020,S,"42685058","60685","+42.7043848","-082.6588518"
"10101 MARINE CITY HWY, ANCHORVILLE, MI 48023",42.719907,-82.7205095,"[-82.7205095, 42.71990700000001]","26","147","650100","26147650100","6501",Census Tract 6501,G5020,S,"42685058","60685","+42.7043848","-082.6588518"
"10015 Marine City Highway, FAIR HAVEN, MI 48023",42.7206774,-82.712331,"[-82.71233099999999, 42.7206774]","26","147","650100","26147650100","6501",Census Tract 6501,G5020,S,"42685058","60685","+42.7043848","-082.6588518"
"9301 MARINE CITY HWY, IRA TWP, MI 49023",42.7217192,-82.6828548,"[-82.6828548, 42.7217192]","26","147","650100","26147650100","6501",Census Tract 6501,G5020,S,"42685058","60685","+42.7043848","-082.6588518"
"9023 MARINE CITY HWY BUILDING A, FAIR HAVEN, MI 48023",42.7224873,-82.6719023,"[-82.6719023, 42.7224873]","26","147","650100","26147650100","6501",Census Tract 6501,G5020,S,"42685058","60685","+42.7043848","-082.6588518"
"5877 BETHUY RD, CASCO TWP, MI 48064",42.7260704,-82.710244,"[-82.710244, 42.7260704]","26","147","651100","26147651100","6511",Census Tract 6511,G5020,S,"60354826","384837","+42.7572099","-082.6594102"
"1629 N. WASHINGTON, SAGINAW, MI 48601",43.4498895,-83.9221027,"[-83.9221027, 43.4498895]","26","145","000100","26145000100","1",Census Tract 1,G5020,S,"4322489","459181","+43.4500993","-083.9196524"
"1701 N FIRST ST, SAGINAW, MI 48601",43.4486706,-83.9329493,"[-83.93294929999999, 43.4486706]","26","145","000100","26145000100","1",Census Tract 1,G5020,S,"4322489","459181","+43.4500993","-083.9196524"
"2300 Veterans Memorial Parkway, SAGINAW, MI 48603",43.4623239,-83.9089566,"[-83.9089566, 43.4623239]","26","145","000100","26145000100","1",Census Tract 1,G5020,S,"4322489","459181","+43.4500993","-083.9196524"
"1000 HESS ST, SAGINAW, MI 48601",43.3996641,-83.95323,"[-83.95322999999999, 43.3996641]","26","145","001100","26145001100","11",Census Tract 11,G5020,S,"3335741","223138","+43.3965170","-083.9487931"
"1010 HESS, SAGINAW, MI 48601",43.3995955,-83.951281,"[-83.951281, 43.3995955]","26","145","001100","26145001100","11",Census Tract 11,G5020,S,"3335741","223138","+43.3965170","-083.9487931"
"1014 HESS, SAGINAW, MI 48601",43.399596,-83.9512445,"[-83.9512445, 43.399596]","26","145","001100","26145001100","11",Census Tract 11,G5020,S,"3335741","223138","+43.3965170","-083.9487931"
"1518 QUEEN ST, SAGINAW, MI 48603",43.4055045,-83.9708296,"[-83.9708296, 43.4055045]","26","145","001300","26145001300","13",Census Tract 13,G5020,S,"1745577","152646","+43.4105324","-083.9739061"
"181 N. Main St., ROCKFORD, MI 49341",43.123111,-85.560058,"[-85.560058, 43.123111]","26","081","010700","26081010700","107",Census Tract 107,G5020,S,"7694656","171780","+43.1267962","-085.5565585"
"465  Wolverine Street, ROCKFORD, MI 49341",43.1304776,-85.5559351,"[-85.5559351, 43.1304776]","26","081","010700","26081010700","107",Census Tract 107,G5020,S,"7694656","171780","+43.1267962","-085.5565585"
"206 Byrne Industrial Drive, ROCKFORD, MI 49341",43.1322644,-85.5536509,"[-85.5536509, 43.1322644]","26","081","010700","26081010700","107",Census Tract 107,G5020,S,"7694656","171780","+43.1267962","-085.5565585"
"9619 NORTHLAND DR NE, ROCKFORD, MI 49341",43.1393883,-85.5511979,"[-85.55119789999999, 43.1393883]","26","081","010700","26081010700","107",Census Tract 107,G5020,S,"7694656","171780","+43.1267962","-085.5565585"
"24800 SCHOENHERR, WARREN, MI 48089",42.4773371,-82.9855193,"[-82.98551929999999, 42.4773371]","26","099","262900","26099262900","2629",Census Tract 2629,G5020,S,"2240154","0","+42.4719493","-082.9780087"
"24660 SCHOENHERR, WARREN, MI 48089",42.4768745,-82.98638,"[-82.98638, 42.4768745]","26","099","262900","26099262900","2629",Census Tract 2629,G5020,S,"2240154","0","+42.4719493","-082.9780087"
"24581 GROESBECK, WARREN, MI 48073",42.4770296,-82.9823701,"[-82.9823701, 42.47702960000001]","26","099","262900","26099262900","2629",Census Tract 2629,G5020,S,"2240154","0","+42.4719493","-082.9780087"
"14057 STEPHENS, WARREN, MI 48089",42.4730275,-82.9806065,"[-82.9806065, 42.4730275]","26","099","262900","26099262900","2629",Census Tract 2629,G5020,S,"2240154","0","+42.4719493","-082.9780087"
"24358 GROESBECK HWY, WARREN, MI 48089",42.4739657,-82.982832,"[-82.982832, 42.4739657]","26","099","262900","26099262900","2629",Census Tract 2629,G5020,S,"2240154","0","+42.4719493","-082.9780087"
"13650 E TEN MILE RD, WARREN, MI 48089",42.477908,-82.984801,"[-82.98480099999999, 42.477908]","26","099","262900","26099262900","2629",Census Tract 2629,G5020,S,"2240154","0","+42.4719493","-082.9780087"
"40550 BRENTWOOD DR, STERLING HTS, MI 48078",42.5901332,-83.0541762,"[-83.0541762, 42.5901332]","26","099","230800","26099230800","2308",Census Tract 2308,G5020,S,"2620919","28629","+42.5897956","-083.0648941"
"40563 MOUND RD, STERLING HTS, MI 48310",42.5909457,-83.0524984,"[-83.05249839999999, 42.5909457]","26","099","230800","26099230800","2308",Census Tract 2308,G5020,S,"2620919","28629","+42.5897956","-083.0648941"
"51277  Celeste St., SHELBY TWP, MI 48135",42.6725689,-82.9914163,"[-82.9914163, 42.67256889999999]","26","099","226400","26099226400","2264",Census Tract 2264,G5020,S,"5238644","34482","+42.6763514","-082.9970276"
"12345 23-Mile Road, SHELBY TWP, MI 48315",42.6699609,-83.0068221,"[-83.0068221, 42.6699609]","26","099","226400","26099226400","2264",Census Tract 2264,G5020,S,"5238644","34482","+42.6763514","-082.9970276"
"VAR LOCATIONS, MACOMB, MI 48315",42.6795602,-83.0039075,"[-83.0039075, 42.6795602]","26","099","226400","26099226400","2264",Census Tract 2264,G5020,S,"5238644","34482","+42.6763514","-082.9970276"
"PERMITS 211 91  131 91  915 90, MACOMB, MI 48315",42.6795602,-83.0039075,"[-83.0039075, 42.6795602]","26","099","226400","26099226400","2264",Census Tract 2264,G5020,S,"5238644","34482","+42.6763514","-082.9970276"
"51515 Corridor, SHELBY TWP, MI 48315",42.6739095,-83.0050858,"[-83.00508579999999, 42.6739095]","26","099","226400","26099226400","2264",Census Tract 2264,G5020,S,"5238644","34482","+42.6763514","-082.9970276"
"51528 SchoenherrRd, SHELBY TWP, MI 48315",42.674386,-82.9947538,"[-82.9947538, 42.674386]","26","099","226400","26099226400","2264",Census Tract 2264,G5020,S,"5238644","34482","+42.6763514","-082.9970276"
"Pmts 211-91, 313-91, 915-80, SHELBY TWP, MI 48315",42.6795602,-83.0039075,"[-83.0039075, 42.6795602]","26","099","226400","26099226400","2264",Census Tract 2264,G5020,S,"5238644","34482","+42.6763514","-082.9970276"
"51180 Celeste, SHELBY TWP, MI 48315",42.672207,-82.9906416,"[-82.99064159999999, 42.67220700000001]","26","099","226400","26099226400","2264",Census Tract 2264,G5020,S,"5238644","34482","+42.6763514","-082.9970276"
"12020 SHELBY TECH DR, SHELBY TWP, MI 48315",42.6746746,-83.0094325,"[-83.00943250000002, 42.6746746]","26","099","226400","26099226400","2264",Census Tract 2264,G5020,S,"5238644","34482","+42.6763514","-082.9970276"
"12000 SHELBY TECH DR, SHELBY TWP, MI 48316",42.674624,-83.0102581,"[-83.0102581, 42.674624]","26","099","226400","26099226400","2264",Census Tract 2264,G5020,S,"5238644","34482","+42.6763514","-082.9970276"
"51689 Oro Dr., SHELBY TWP, MI 48315",42.6762142,-82.986991,"[-82.986991, 42.6762142]","26","099","226400","26099226400","2264",Census Tract 2264,G5020,S,"5238644","34482","+42.6763514","-082.9970276"
"51559 ORO ROAD, SHELBY TWP, MI 48315",42.675444,-82.9869888,"[-82.98698879999999, 42.675444]","26","099","226400","26099226400","2264",Census Tract 2264,G5020,S,"5238644","34482","+42.6763514","-082.9970276"
"51210 ORO ROAD, SHELBY TWP, MI 48315",42.6729379,-82.9858132,"[-82.9858132, 42.6729379]","26","099","226400","26099226400","2264",Census Tract 2264,G5020,S,"5238644","34482","+42.6763514","-082.9970276"
"12585 23 MILE ROAD, SHELBY TWP, MI 48315",42.674008,-83.004848,"[-83.004848, 42.674008]","26","099","226400","26099226400","2264",Census Tract 2264,G5020,S,"5238644","34482","+42.6763514","-082.9970276"
"51010 Celeste Drive, SHELBY TWP, MI 48315",42.6712737,-82.9903057,"[-82.9903057, 42.67127370000001]","26","099","226400","26099226400","2264",Census Tract 2264,G5020,S,"5238644","34482","+42.6763514","-082.9970276"
"51515 Celeste Dr., SHELBY TWP, MI 48315",42.67449,-82.9919012,"[-82.9919012, 42.67449]","26","099","226400","26099226400","2264",Census Tract 2264,G5020,S,"5238644","34482","+42.6763514","-082.9970276"
"11971 Investment Drive, SHELBY TWP, MI 48315",42.6787443,-83.0096631,"[-83.0096631, 42.6787443]","26","099","226400","26099226400","2264",Census Tract 2264,G5020,S,"5238644","34482","+42.6763514","-082.9970276"
"52888 Shelby Parkway, SHELBY TWP, MI 48315",42.6834623,-83.0112509,"[-83.0112509, 42.6834623]","26","099","226400","26099226400","2264",Census Tract 2264,G5020,S,"5238644","34482","+42.6763514","-082.9970276"
"14846 MARTIN RD, WARREN, MI 48088",42.4992351,-82.9707982,"[-82.97079819999999, 42.49923510000001]","26","099","267600","26099267600","2676",Census Tract 2676,G5020,S,"1329591","0","+42.4969307","-082.9775636"
"33180 KELLY RD., CLINTON TWP, MI 48085",42.5409962,-82.928895,"[-82.928895, 42.5409962]","26","099","241600","26099241600","2416",Census Tract 2416,G5020,S,"1341550","0","+42.5467611","-082.9249962"
"33674 Kelly, CLINTON TWP, MI 48035",42.5451543,-82.928937,"[-82.92893699999999, 42.5451543]","26","099","241600","26099241600","2416",Census Tract 2416,G5020,S,"1341550","0","+42.5467611","-082.9249962"
"33600 Kelly Rd., CLINTON TWP, MI 48035",42.5445066,-82.9292522,"[-82.9292522, 42.5445066]","26","099","241600","26099241600","2416",Census Tract 2416,G5020,S,"1341550","0","+42.5467611","-082.9249962"
"11621 Belding Rd NE, BELDING, MI 48809",43.0826923,-85.3807621,"[-85.3807621, 43.0826923]","26","081","010902","26081010902","109.02",Census Tract 109.02,G5020,S,"89351228","7555005","+43.0781728","-085.3761757"
"3055 MACKINAC TRL, SAULT S MARIE, MI 49783",46.46192,-84.3718922,"[-84.37189219999999, 46.46192]","26","033","970601","26033970601","9706.01",Census Tract 9706.01,G5020,S,"131676418","24908094","+46.4117519","-084.4553561"
"4576 S. Mackinac Trail, SAULT S MARIE, MI 49783",46.4416305,-84.3791555,"[-84.3791555, 46.4416305]","26","033","970601","26033970601","9706.01",Census Tract 9706.01,G5020,S,"131676418","24908094","+46.4117519","-084.4553561"
"3239 S Radar Road, SAULT S MARIE, MI 49783",46.4600588,-84.3897668,"[-84.38976679999999, 46.4600588]","26","033","970601","26033970601","9706.01",Census Tract 9706.01,G5020,S,"131676418","24908094","+46.4117519","-084.4553561"
"305 WEST 3 MILE ROAD, SAULT S MARIE, MI 49783",46.4625328,-84.3632951,"[-84.3632951, 46.4625328]","26","033","970601","26033970601","9706.01",Census Tract 9706.01,G5020,S,"131676418","24908094","+46.4117519","-084.4553561"
"3949 S Mackinaw Trail, SAULT S MARIE, MI 49783",46.4490131,-84.3752663,"[-84.37526629999999, 46.44901309999999]","26","033","970601","26033970601","9706.01",Census Tract 9706.01,G5020,S,"131676418","24908094","+46.4117519","-084.4553561"
"5018 W M28, BRIMLEY, MI 49715",46.3755916,-84.468898,"[-84.468898, 46.3755916]","26","033","970601","26033970601","9706.01",Census Tract 9706.01,G5020,S,"131676418","24908094","+46.4117519","-084.4553561"
"4269 W. M-80, KINCHELOE, MI 49784",46.37,-84.85,"[-84.85000000000001, 46.37]","26","033","970602","26033970602","9706.02",Census Tract 9706.02,G5020,S,"295677237","57417426","+46.4322982","-084.7821657"
"74100 VAN DYKE, ROMEO, MI 48065",42.8402542,-83.0184625,"[-83.0184625, 42.8402542]","26","099","214000","26099214000","2140",Census Tract 2140,G5020,S,"30488026","77992","+42.8547421","-083.0088960"
"73408 VAN DYKE, ROMEO, MI 48065",42.8354952,-83.0193215,"[-83.01932149999999, 42.8354952]","26","099","214000","26099214000","2140",Census Tract 2140,G5020,S,"30488026","77992","+42.8547421","-083.0088960"
"80650 Earle Memorial Hospital, BRUCE TWP, MI 48003",42.8868118,-83.0393603,"[-83.0393603, 42.8868118]","26","099","214000","26099214000","2140",Census Tract 2140,G5020,S,"30488026","77992","+42.8547421","-083.0088960"
"74000  Van Dyke Avenue, ROMEO, MI 48065",42.7936978,-83.0126779,"[-83.0126779, 42.7936978]","26","099","215000","26099215000","2150",Census Tract 2150,G5020,S,"43323382","892347","+42.7795008","-083.0265857"
"12700  30 MILE ROAD, WASHINGTON, MI 48095",42.767423,-83.0053329,"[-83.0053329, 42.767423]","26","099","215000","26099215000","2150",Census Tract 2150,G5020,S,"43323382","892347","+42.7795008","-083.0265857"
"12379 31 MILE RD, ROMEO, MI 48065",42.7871031,-83.011337,"[-83.011337, 42.7871031]","26","099","215000","26099215000","2150",Census Tract 2150,G5020,S,"43323382","892347","+42.7795008","-083.0265857"
"67780 VAN DYKE, ROMEO, MI 48065",42.792531,-83.0101198,"[-83.0101198, 42.792531]","26","099","215000","26099215000","2150",Census Tract 2150,G5020,S,"43323382","892347","+42.7795008","-083.0265857"
"2101 INWOOD ROAD, WASHINGTON, MI 48095",42.766764,-83.091786,"[-83.091786, 42.76676399999999]","26","099","215000","26099215000","2150",Census Tract 2150,G5020,S,"43323382","892347","+42.7795008","-083.0265857"
"12708 30 MILE RD, WASHINGTON, MI 48095",42.7726647,-83.0081676,"[-83.0081676, 42.7726647]","26","099","215000","26099215000","2150",Census Tract 2150,G5020,S,"43323382","892347","+42.7795008","-083.0265857"
"15055 30 Mile Road, WASHINGTON, MI 48466",42.779047,-82.981412,"[-82.98141199999999, 42.779047]","26","099","215000","26099215000","2150",Census Tract 2150,G5020,S,"43323382","892347","+42.7795008","-083.0265857"
"919 6TH ST, PORT HURON, MI 48060",42.9751135,-82.4263466,"[-82.4263466, 42.9751135]","26","147","624000","26147624000","6240",Census Tract 6240,G5020,S,"1041537","232609","+42.9721753","-082.4253007"
"10918 Gratiot Avenue, CASCO, MI 48064",42.7995149,-82.7333234,"[-82.7333234, 42.79951490000001]","26","147","651200","26147651200","6512",Census Tract 6512,G5020,S,"35519846","29956","+42.7839004","-082.7040946"
"3243 W WATER, PORT HURON, MI 48060",42.9942739,-82.4657561,"[-82.4657561, 42.9942739]","26","147","635000","26147635000","6350",Census Tract 6350,G5020,S,"14545954","459794","+42.9965741","-082.4860712"
"6330 LAPEER RD, CLYDE TWP, MI 48049",42.993002,-82.582888,"[-82.582888, 42.993002]","26","147","633200","26147633200","6332",Census Tract 6332,G5020,S,"66151656","763922","+43.0400773","-082.5860985"
"1647  CAUGHILL Road, COLUMBUS, MI 48063",42.8520598,-82.6748154,"[-82.67481540000001, 42.8520598]","26","147","651600","26147651600","6516",Census Tract 6516,G5020,S,"95197681","759286","+42.8593322","-082.6831107"
"285 S WALES CENTER RD, COLUMBUS, MI 48063",42.893178,-82.6739816,"[-82.67398159999999, 42.893178]","26","147","651600","26147651600","6516",Census Tract 6516,G5020,S,"95197681","759286","+42.8593322","-082.6831107"
"333 South Wales Center Road, COLUMBUS, MI 48603",42.8927276,-82.6748781,"[-82.6748781, 42.8927276]","26","147","651600","26147651600","6516",Census Tract 6516,G5020,S,"95197681","759286","+42.8593322","-082.6831107"
"8870 BRYCE RD, AVOCA, MI 48006",43.0188248,-82.6870975,"[-82.6870975, 43.0188248]","26","147","652100","26147652100","6521",Census Tract 6521,G5020,S,"92337205","611081","+43.0320446","-082.6939557"
"2736 GOODELLS RD, GOODELLS, MI 48027",42.9812364,-82.6651077,"[-82.6651077, 42.98123640000001]","26","147","652600","26147652600","6526",Census Tract 6526,G5020,S,"96790995","167362","+42.9442888","-082.6940405"
"90 Jean Street, YALE, MI 48097",43.1313367,-82.7891027,"[-82.7891027, 43.13133670000001]","26","147","655100","26147655100","6551",Census Tract 6551,G5020,S,"183286106","1362533","+43.1185170","-082.8811776"
"204 N. Main, YALE, MI 48097",43.1310719,-82.7968509,"[-82.7968509, 43.13107189999999]","26","147","655100","26147655100","6551",Census Tract 6551,G5020,S,"183286106","1362533","+43.1185170","-082.8811776"
"7000  KILGORE ROAD, AVOCA, MI 48006",43.1067683,-82.6986921,"[-82.6986921, 43.1067683]","26","147","655600","26147655600","6556",Census Tract 6556,G5020,S,"169566372","882041","+43.1167703","-082.6497383"
"SEC 33 SW 1/4, GRANT TWP, MI 99999",43.1085609,-82.5834947,"[-82.5834947, 43.1085609]","26","147","655600","26147655600","6556",Census Tract 6556,G5020,S,"169566372","882041","+43.1167703","-082.6497383"
"220 Hunter Street, CAPAC, MI 48014",43.0091908,-82.924379,"[-82.924379, 43.0091908]","26","147","657100","26147657100","6571",Census Tract 6571,G5020,S,"4815225","133342","+43.0038891","-082.9222799"
"5122 W Houghton Lake Rd, LAKE CITY, MI 49651",44.3398442,-85.1977834,"[-85.19778339999999, 44.33984419999999]","26","113","960102","26113960102","9601.02",Census Tract 9601.02,G5020,S,"237356950","339502","+44.3891700","-085.1188793"
"5566 W JENEMA RD, LAKE CITY, MI 49561",44.3984672,-85.2113519,"[-85.2113519, 44.3984672]","26","113","960102","26113960102","9601.02",Census Tract 9601.02,G5020,S,"237356950","339502","+44.3891700","-085.1188793"
"4150 N WOLCOTT RD, LAKE CITY, MI 49651",44.3988883,-85.211303,"[-85.211303, 44.3988883]","26","113","960102","26113960102","9601.02",Census Tract 9601.02,G5020,S,"237356950","339502","+44.3891700","-085.1188793"
"1317C SANBORN RD, LAKE CITY, MI 49651",44.3512778,-85.0692506,"[-85.06925059999999, 44.3512778]","26","113","960102","26113960102","9601.02",Census Tract 9601.02,G5020,S,"237356950","339502","+44.3891700","-085.1188793"
"1560 WEST HOUGHTON LAKE RD, LAKE CITY, MI 49651",44.3386019,-85.1263725,"[-85.1263725, 44.3386019]","26","113","960102","26113960102","9601.02",Census Tract 9601.02,G5020,S,"237356950","339502","+44.3891700","-085.1188793"
"1317 SANBORN RD, LAKE CITY, MI 49651",44.3512778,-85.0692506,"[-85.06925059999999, 44.3512778]","26","113","960102","26113960102","9601.02",Census Tract 9601.02,G5020,S,"237356950","339502","+44.3891700","-085.1188793"
"5201 N Brown Rd, LAKE CITY, MI 49663",44.4194044,-85.3178134,"[-85.31781339999999, 44.4194044]","26","113","960102","26113960102","9601.02",Census Tract 9601.02,G5020,S,"237356950","339502","+44.3891700","-085.1188793"
"7361 N 7 MILE RD, LAKE CITY, MI 49651",44.4425485,-85.0753701,"[-85.0753701, 44.4425485]","26","113","960101","26113960101","9601.01",Census Tract 9601.01,G5020,S,"445802152","3632286","+44.4442580","-085.0542888"
"9771 Wilson Rd, LAKE CITY, MI 49651",44.4769798,-85.0030772,"[-85.00307719999999, 44.4769798]","26","113","960101","26113960101","9601.01",Census Tract 9601.01,G5020,S,"445802152","3632286","+44.4442580","-085.0542888"
"7650 N 7 Mile Road, LAKE CITY, MI 49657",44.4468413,-85.0745467,"[-85.0745467, 44.4468413]","26","113","960101","26113960101","9601.01",Census Tract 9601.01,G5020,S,"445802152","3632286","+44.4442580","-085.0542888"
"4176 North Dorr Road, MERRITT, MI 49677",44.3956703,-84.885849,"[-84.885849, 44.3956703]","26","113","960101","26113960101","9601.01",Census Tract 9601.01,G5020,S,"445802152","3632286","+44.4442580","-085.0542888"
"36555  29 MILE RD., MUTTONVILLE, MI 48014",42.7694054,-82.7454606,"[-82.7454606, 42.7694054]","26","099","217000","26099217000","2170",Census Tract 2170,G5020,S,"75784826","305071","+42.7739786","-082.8136204"
"36600  29 MILE RD., LENOX, MI 48048",42.7642545,-82.7461175,"[-82.7461175, 42.7642545]","26","099","217000","26099217000","2170",Census Tract 2170,G5020,S,"75784826","305071","+42.7739786","-082.8136204"
"PERMIT 181 75, PONTIAC, MI 48050",42.7842331,-82.8101975,"[-82.8101975, 42.7842331]","26","099","217000","26099217000","2170",Census Tract 2170,G5020,S,"75784826","305071","+42.7739786","-082.8136204"
"PMT 793-90, NOVI, MI 48050",42.7842331,-82.8101975,"[-82.8101975, 42.7842331]","26","099","217000","26099217000","2170",Census Tract 2170,G5020,S,"75784826","305071","+42.7739786","-082.8136204"
"36450 29 MILE RD, LENOX TWP, MI 48062",42.7641341,-82.7473147,"[-82.74731469999999, 42.7641341]","26","099","217000","26099217000","2170",Census Tract 2170,G5020,S,"75784826","305071","+42.7739786","-082.8136204"
"50800  Russell Schmidt Blvd, CHESTERFIELD, MI 48051",42.6716266,-82.8436998,"[-82.84369980000001, 42.6716266]","26","099","221100","26099221100","2211",Census Tract 2211,G5020,S,"8254829","79033","+42.6548876","-082.8440971"
"50625 RICHARD W BLVD, CHESTERFIELD, MI 48051",42.668135,-82.8511051,"[-82.8511051, 42.66813500000001]","26","099","221100","26099221100","2211",Census Tract 2211,G5020,S,"8254829","79033","+42.6548876","-082.8440971"
"50501 E RUSSELL SCHMIDT, MOUNT CLEMENS, MI 48043",42.6682709,-82.8484123,"[-82.84841229999999, 42.6682709]","26","099","221100","26099221100","2211",Census Tract 2211,G5020,S,"8254829","79033","+42.6548876","-082.8440971"
"50900 East Russell Schmidt Blvd., CHESTERFIELD, MI 48051",42.673467,-82.8415117,"[-82.8415117, 42.673467]","26","099","221100","26099221100","2211",Census Tract 2211,G5020,S,"8254829","79033","+42.6548876","-082.8440971"
"50560 PATRICIA AVE, CHESTERFIELD, MI 48051",42.6702376,-82.8394548,"[-82.8394548, 42.6702376]","26","099","221100","26099221100","2211",Census Tract 2211,G5020,S,"8254829","79033","+42.6548876","-082.8440971"
"50750 E RUSSELL SCHMIDT BLVD, CHESTERFIELD, MI 48051",42.6707351,-82.8440364,"[-82.8440364, 42.67073509999999]","26","099","221100","26099221100","2211",Census Tract 2211,G5020,S,"8254829","79033","+42.6548876","-082.8440971"
"50725 RICHARD WEST BLVD., CHESTERFIELD, MI 48051",42.6696771,-82.8514417,"[-82.8514417, 42.6696771]","26","099","221100","26099221100","2211",Census Tract 2211,G5020,S,"8254829","79033","+42.6548876","-082.8440971"
"50405,50325 PATRICIA Avenue, CHESTERFIELD, MI 48051",42.6703121,-82.8409226,"[-82.84092260000001, 42.6703121]","26","099","221100","26099221100","2211",Census Tract 2211,G5020,S,"8254829","79033","+42.6548876","-082.8440971"
"50321 E Russell Schmidt, CHESTERFIELD, MI 48051",42.6653759,-82.8507685,"[-82.8507685, 42.6653759]","26","099","221100","26099221100","2211",Census Tract 2211,G5020,S,"8254829","79033","+42.6548876","-082.8440971"
"50570 EAST RUSSELL SCHMIDT BLVD, CHESTERFIELD, MI 48051",42.668488,-82.8458037,"[-82.84580369999999, 42.668488]","26","099","221100","26099221100","2211",Census Tract 2211,G5020,S,"8254829","79033","+42.6548876","-082.8440971"
"26090 23 MILE RD, CHESTERFIELD, MI 48051",42.672063,-82.848244,"[-82.848244, 42.672063]","26","099","221100","26099221100","2211",Census Tract 2211,G5020,S,"8254829","79033","+42.6548876","-082.8440971"
"48630 STRUCTURAL DR, CHESTERFIELD, MI 48051",42.6570324,-82.8523673,"[-82.8523673, 42.6570324]","26","099","221100","26099221100","2211",Census Tract 2211,G5020,S,"8254829","79033","+42.6548876","-082.8440971"
"48655 GRATIOT, MOUNT CLEMENS, MI 48043",42.6571464,-82.8478023,"[-82.8478023, 42.65714639999999]","26","099","221100","26099221100","2211",Census Tract 2211,G5020,S,"8254829","79033","+42.6548876","-082.8440971"
"50371 E RUSSELL SCHMIDT BLVD, CHESTERFIELD, MI 48051",42.6663068,-82.8498429,"[-82.8498429, 42.6663068]","26","099","221100","26099221100","2211",Census Tract 2211,G5020,S,"8254829","79033","+42.6548876","-082.8440971"
"50320 E RUSSELL SCHMIDT BLVD, CHESTERFIELD, MI 48051",42.6645282,-82.8481599,"[-82.8481599, 42.6645282]","26","099","221100","26099221100","2211",Census Tract 2211,G5020,S,"8254829","79033","+42.6548876","-082.8440971"
"50150 E RUSSELL SCHMIDT BLVD, CHESTERFIELD, MI 48051",42.6620578,-82.8500112,"[-82.8500112, 42.6620578]","26","099","221100","26099221100","2211",Census Tract 2211,G5020,S,"8254829","79033","+42.6548876","-082.8440971"
"25712 D'HONDT COURT, CHESTERFIELD, MI 48051",42.655023,-82.8518624,"[-82.8518624, 42.655023]","26","099","221100","26099221100","2211",Census Tract 2211,G5020,S,"8254829","79033","+42.6548876","-082.8440971"
"49201 Gratiot Ave, CHESTERFIELD, MI 48501",42.6632347,-82.8457195,"[-82.8457195, 42.6632347]","26","099","221100","26099221100","2211",Census Tract 2211,G5020,S,"8254829","79033","+42.6548876","-082.8440971"
"50450 E. Russell Schmidt Dr., CHESTERFIELD, MI 48051",42.6657318,-82.8467293,"[-82.84672929999999, 42.6657318]","26","099","221100","26099221100","2211",Census Tract 2211,G5020,S,"8254829","79033","+42.6548876","-082.8440971"
"50925 Richard W. Blvd., CHESTERFIELD, MI 48051",42.6722313,-82.8509368,"[-82.8509368, 42.6722313]","26","099","221100","26099221100","2211",Census Tract 2211,G5020,S,"8254829","79033","+42.6548876","-082.8440971"
"48750 Structural Drive, CHESTERFIELD, MI 48051",42.6580554,-82.8516941,"[-82.8516941, 42.65805539999999]","26","099","221100","26099221100","2211",Census Tract 2211,G5020,S,"8254829","79033","+42.6548876","-082.8440971"
"25190 Terra Industrial Drive, NEW BALTIMORE, MI 48051",42.648954,-82.855186,"[-82.855186, 42.648954]","26","099","221100","26099221100","2211",Census Tract 2211,G5020,S,"8254829","79033","+42.6548876","-082.8440971"
"PERMIT #389-75, WIXOM, MI 48096",42.743032,-82.9286428,"[-82.92864279999999, 42.743032]","26","099","216000","26099216000","2160",Census Tract 2160,G5020,S,"94588774","245815","+42.7621506","-082.9204704"
"22641 29 MILE RD, RAY TWP, MI 48096",42.7621319,-82.8873412,"[-82.8873412, 42.7621319]","26","099","216000","26099216000","2160",Census Tract 2160,G5020,S,"94588774","245815","+42.7621506","-082.9204704"
"63800 Romeo Plank Rd., RAY CENTER, MI 48096",42.7675463,-82.9604955,"[-82.9604955, 42.7675463]","26","099","216000","26099216000","2160",Census Tract 2160,G5020,S,"94588774","245815","+42.7621506","-082.9204704"
"24551 29 MILE RD, RAY TWP, MI 48096",42.767117,-82.869469,"[-82.869469, 42.767117]","26","099","216000","26099216000","2160",Census Tract 2160,G5020,S,"94588774","245815","+42.7621506","-082.9204704"
"30 Mile Road, WASHINGTON, MI 48094",42.7762379,-82.8952697,"[-82.8952697, 42.7762379]","26","099","216000","26099216000","2160",Census Tract 2160,G5020,S,"94588774","245815","+42.7621506","-082.9204704"
"68211 & 68233 Omo Road, RAY TWP, MI 48096",42.8003791,-82.8629803,"[-82.86298029999999, 42.8003791]","26","099","216000","26099216000","2160",Census Tract 2160,G5020,S,"94588774","245815","+42.7621506","-082.9204704"
"801 N WILLIAMS ST, CARSON CITY, MI 48811",43.1836759,-84.851692,"[-84.851692, 43.1836759]","26","117","971000","26117971000","9710",Census Tract 9710,G5020,S,"209477391","823643","+43.1703843","-084.9428764"
"950 N. Division Street, CARSON CITY, MI 48811",43.1851804,-84.84631,"[-84.84631, 43.1851804]","26","117","971000","26117971000","9710",Census Tract 9710,G5020,S,"209477391","823643","+43.1703843","-084.9428764"
"930 N DIVISION ST, CARSON CITY, MI 48811",43.1845095,-84.8459803,"[-84.8459803, 43.1845095]","26","117","971000","26117971000","9710",Census Tract 9710,G5020,S,"209477391","823643","+43.1703843","-084.9428764"
"4876  KETTLEHUT RD., CAPAC, MI 48014",43.0380345,-82.9482603,"[-82.9482603, 43.03803449999999]","26","147","657200","26147657200","6572",Census Tract 6572,G5020,S,"183737697","419665","+42.9814716","-082.9236524"
"11501 LAMBS RD, MEMPHIS, MI 48041",42.9245357,-82.7810541,"[-82.78105409999999, 42.9245357]","26","147","658500","26147658500","6585",Census Tract 6585,G5020,S,"100285927","313124","+42.9372573","-082.8095358"
"81620 Belle River Rd., MEMPHIS, MI 48041",42.9010672,-82.7729298,"[-82.7729298, 42.9010672]","26","147","658500","26147658500","6585",Census Tract 6585,G5020,S,"100285927","313124","+42.9372573","-082.8095358"
"16470 E. THIRTEEN MILE RD., ROSEVILLE, MI 48066",42.5230917,-82.9526991,"[-82.95269909999999, 42.52309169999999]","26","099","255400","26099255400","2554",Census Tract 2554,G5020,S,"2240448","0","+42.5172926","-082.9601395"
"15765 STURGEON, ROSEVILLE, MI 48066",42.5143165,-82.9600695,"[-82.9600695, 42.5143165]","26","099","255400","26099255400","2554",Census Tract 2554,G5020,S,"2240448","0","+42.5172926","-082.9601395"
"16410 COMMON RD, ROSEVILLE, MI 48066",42.5163301,-82.9546914,"[-82.95469140000002, 42.5163301]","26","099","255400","26099255400","2554",Census Tract 2554,G5020,S,"2240448","0","+42.5172926","-082.9601395"
"16440 COMMON RD, ROSEVILLE, MI 48066",42.5160196,-82.9542727,"[-82.95427269999999, 42.5160196]","26","099","255400","26099255400","2554",Census Tract 2554,G5020,S,"2240448","0","+42.5172926","-082.9601395"
"29165 CALAHAN, ROSEVILLE, MI 48066",42.5107552,-82.9634274,"[-82.9634274, 42.5107552]","26","099","255400","26099255400","2554",Census Tract 2554,G5020,S,"2240448","0","+42.5172926","-082.9601395"
"30121 GROSBECK HWY, ROSEVILLE, MI 48066",42.5176857,-82.9522142,"[-82.9522142, 42.5176857]","26","099","255400","26099255400","2554",Census Tract 2554,G5020,S,"2240448","0","+42.5172926","-082.9601395"
"29765 Groesbeck, ROSEVILLE, MI 48066",42.513879,-82.9548188,"[-82.9548188, 42.513879]","26","099","255400","26099255400","2554",Census Tract 2554,G5020,S,"2240448","0","+42.5172926","-082.9601395"
"30759 EDISON, ROSEVILLE, MI 48066",42.5217863,-82.9537686,"[-82.95376859999999, 42.5217863]","26","099","255400","26099255400","2554",Census Tract 2554,G5020,S,"2240448","0","+42.5172926","-082.9601395"
"30499 Edison, ROSEVILLE, MI 48066",42.5206071,-82.9544407,"[-82.95444069999999, 42.5206071]","26","099","255400","26099255400","2554",Census Tract 2554,G5020,S,"2240448","0","+42.5172926","-082.9601395"
"29955 GROESBECK, ROSEVILLE, MI 48066",42.5157746,-82.9533905,"[-82.9533905, 42.5157746]","26","099","255400","26099255400","2554",Census Tract 2554,G5020,S,"2240448","0","+42.5172926","-082.9601395"
"15960 Common Road, ROSEVILLE, MI 48066",42.5159483,-82.9588382,"[-82.9588382, 42.5159483]","26","099","255400","26099255400","2554",Census Tract 2554,G5020,S,"2240448","0","+42.5172926","-082.9601395"
"29163 Calahan, ROSEVILLE, MI 48066",42.511155,-82.966364,"[-82.966364, 42.511155]","26","099","255400","26099255400","2554",Census Tract 2554,G5020,S,"2240448","0","+42.5172926","-082.9601395"
"431  Helen  Ave, OTSEGO, MI 49078",42.4651554,-85.7050571,"[-85.70505709999999, 42.4651554]","26","005","031800","26005031800","318",Census Tract 318,G5020,S,"62144739","1219680","+42.4724649","-085.7497170"
"602 LINCOLN RD, OTSEGO, MI 49078",42.4595086,-85.7211872,"[-85.7211872, 42.4595086]","26","005","031800","26005031800","318",Census Tract 318,G5020,S,"62144739","1219680","+42.4724649","-085.7497170"
"320 N Farmer St., OTSEGO, MI 49078",42.464314,-85.6940437,"[-85.6940437, 42.46431399999999]","26","005","031900","26005031900","319",Census Tract 319,G5020,S,"29305513","573289","+42.4680984","-085.6701984"
"470  12TH ST, PLAINWELL, MI 49080",42.4549,-85.6716948,"[-85.6716948, 42.45489999999999]","26","005","031900","26005031900","319",Census Tract 319,G5020,S,"29305513","573289","+42.4680984","-085.6701984"
"SW/NE/SW OF S18, T29W, R3W, OTSEGO LAKE, MI 49078",42.4605904,-85.696406,"[-85.696406, 42.4605904]","26","005","031900","26005031900","319",Census Tract 319,G5020,S,"29305513","573289","+42.4680984","-085.6701984"
"T29N, R3W Sec 15, OTSEGO LAKE, MI 49078",42.450406,-85.693789,"[-85.693789, 42.450406]","26","005","031900","26005031900","319",Census Tract 319,G5020,S,"29305513","573289","+42.4680984","-085.6701984"
"610 S PLATT ST, OTSEGO, MI 49078",42.4532779,-85.6928806,"[-85.6928806, 42.4532779]","26","005","031900","26005031900","319",Census Tract 319,G5020,S,"29305513","573289","+42.4680984","-085.6701984"
"300 Parker, OTSEGO, MI 49078",42.4497739,-85.6964208,"[-85.6964208, 42.4497739]","26","005","031900","26005031900","319",Census Tract 319,G5020,S,"29305513","573289","+42.4680984","-085.6701984"
"100 Parker, OTSEGO, MI 49078",42.4491731,-85.6988561,"[-85.6988561, 42.4491731]","26","005","031900","26005031900","319",Census Tract 319,G5020,S,"29305513","573289","+42.4680984","-085.6701984"
"601 S WILMOT STREET, OTSEGO, MI 49078",42.4532096,-85.6941239,"[-85.6941239, 42.4532096]","26","005","031900","26005031900","319",Census Tract 319,G5020,S,"29305513","573289","+42.4680984","-085.6701984"
"26830 LIBERAL, CENTER LINE, MI 48015",42.490815,-83.0337041,"[-83.0337041, 42.490815]","26","099","268100","26099268100","2681",Census Tract 2681,G5020,S,"2310471","0","+42.4799631","-083.0329084"
"26333 VAN DYKE, CENTER LINE, MI 48015",42.4871496,-83.028669,"[-83.028669, 42.4871496]","26","099","268100","26099268100","2681",Census Tract 2681,G5020,S,"2310471","0","+42.4799631","-083.0329084"
"701 E. 32 MILE RD., ROMEO, MI 48065",42.8081629,-82.9955777,"[-82.9955777, 42.8081629]","26","099","206700","26099206700","2067",Census Tract 2067,G5020,S,"5248288","1476","+42.8059331","-083.0044680"
"130 E Pond Dr, ROMEO, MI 48065",42.8077142,-82.9823701,"[-82.9823701, 42.8077142]","26","099","206700","26099206700","2067",Census Tract 2067,G5020,S,"5248288","1476","+42.8059331","-083.0044680"
"200 N Main Street, ROMEO, MI 48065",42.8027675,-83.0130997,"[-83.0130997, 42.8027675]","26","099","206700","26099206700","2067",Census Tract 2067,G5020,S,"5248288","1476","+42.8059331","-083.0044680"
"160 MCLEAN, ROMEO, MI 48065",42.8176616,-82.9823829,"[-82.98238289999999, 42.8176616]","26","099","206700","26099206700","2067",Census Tract 2067,G5020,S,"5248288","1476","+42.8059331","-083.0044680"
"103 PEYERK COURT, ROMEO, MI 48065",42.810763,-82.9809065,"[-82.9809065, 42.810763]","26","099","206700","26099206700","2067",Census Tract 2067,G5020,S,"5248288","1476","+42.8059331","-083.0044680"
"15065 32 MILE, ROMEO, MI 48065",42.8039309,-82.9807153,"[-82.9807153, 42.8039309]","26","099","206700","26099206700","2067",Census Tract 2067,G5020,S,"5248288","1476","+42.8059331","-083.0044680"
"322 S MAIN ST, ROMEO, MI 48065",42.7963334,-83.0136663,"[-83.0136663, 42.7963334]","26","099","206700","26099206700","2067",Census Tract 2067,G5020,S,"5248288","1476","+42.8059331","-083.0044680"
"141 Peyerk Court, ROMEO, MI 48065",42.810455,-82.983256,"[-82.983256, 42.810455]","26","099","206700","26099206700","2067",Census Tract 2067,G5020,S,"5248288","1476","+42.8059331","-083.0044680"
"35375 32 MILE RD, RICHMOND, MI 48062",42.8087502,-82.7742584,"[-82.7742584, 42.8087502]","26","099","210000","26099210000","2100",Census Tract 2100,G5020,S,"98680173","149341","+42.8508166","-082.8072314"
"26775 32 MILE RD, RICHMOND, MI 48062",42.811279,-82.8471749,"[-82.8471749, 42.81127900000001]","26","099","210000","26099210000","2100",Census Tract 2100,G5020,S,"98680173","149341","+42.8508166","-082.8072314"
"29359 32 Mile Road, RICHMOND, MI 48062",42.8101105,-82.8207685,"[-82.8207685, 42.8101105]","26","099","210000","26099210000","2100",Census Tract 2100,G5020,S,"98680173","149341","+42.8508166","-082.8072314"
"36901 DIVISION ROAD, RICHMOND, MI 48062",42.8094926,-82.7453194,"[-82.7453194, 42.8094926]","26","099","210000","26099210000","2100",Census Tract 2100,G5020,S,"98680173","149341","+42.8508166","-082.8072314"
"68750 OAK, RICHMOND, MI 48062",42.8074455,-82.7513177,"[-82.7513177, 42.8074455]","26","099","211000","26099211000","2110",Census Tract 2110,G5020,S,"6844722","86957","+42.8100806","-082.7546883"
"67567 SOUTH MAIN STREET, RICHMOND, MI 48062",42.7983624,-82.7420472,"[-82.7420472, 42.79836239999999]","26","099","211000","26099211000","2110",Census Tract 2110,G5020,S,"6844722","86957","+42.8100806","-082.7546883"
"67400 Main St, RICHMOND, MI 48062",42.7980413,-82.7386148,"[-82.7386148, 42.79804130000001]","26","099","211000","26099211000","2110",Census Tract 2110,G5020,S,"6844722","86957","+42.8100806","-082.7546883"
"67371 Gratiot Ave, RICHMOND, MI 48062",42.798374,-82.7338713,"[-82.73387129999999, 42.798374]","26","099","211000","26099211000","2110",Census Tract 2110,G5020,S,"6844722","86957","+42.8100806","-082.7546883"
"36490 DIVISION RD., RICHMOND, MI 48062",42.8081398,-82.7503064,"[-82.7503064, 42.8081398]","26","099","211000","26099211000","2110",Census Tract 2110,G5020,S,"6844722","86957","+42.8100806","-082.7546883"
"34901 DIVISION ROAD, RICHMOND, MI 48062",42.810237,-82.7666533,"[-82.7666533, 42.81023700000001]","26","099","211000","26099211000","2110",Census Tract 2110,G5020,S,"6844722","86957","+42.8100806","-082.7546883"
"66871 GRATIOT, RICHMOND, MI 48062",42.79398,-82.73862,"[-82.73862, 42.79398]","26","099","211000","26099211000","2110",Census Tract 2110,G5020,S,"6844722","86957","+42.8100806","-082.7546883"
"66629 Gratiot Ave., RICHMOND, MI 48062",42.791874,-82.739196,"[-82.73919599999999, 42.791874]","26","099","211000","26099211000","2110",Census Tract 2110,G5020,S,"6844722","86957","+42.8100806","-082.7546883"
"69333  OMO RD., ARMADA, MI 48005",42.8107738,-82.8656845,"[-82.86568450000001, 42.8107738]","26","099","212000","26099212000","2120",Census Tract 2120,G5020,S,"94534481","158880","+42.8559188","-082.9123841"
"74110 CHURCH, ARMADA, MI 48005",42.8434271,-82.882316,"[-82.882316, 42.8434271]","26","099","212000","26099212000","2120",Census Tract 2120,G5020,S,"94534481","158880","+42.8559188","-082.9123841"
"24586 ARMADA RIDGE RD, ARMADA, MI 48005",42.8454373,-82.8683528,"[-82.8683528, 42.84543730000001]","26","099","212000","26099212000","2120",Census Tract 2120,G5020,S,"94534481","158880","+42.8559188","-082.9123841"
"69212 POWELL, ROMEO, MI 48065",42.8079827,-82.9801538,"[-82.9801538, 42.8079827]","26","099","212000","26099212000","2120",Census Tract 2120,G5020,S,"94534481","158880","+42.8559188","-082.9123841"
"15211 Laethem Drive, ARMADA, MI 48005",42.8135661,-82.9802784,"[-82.9802784, 42.8135661]","26","099","212000","26099212000","2120",Census Tract 2120,G5020,S,"94534481","158880","+42.8559188","-082.9123841"
"69900 Powell Road, ARMADA, MI 48005",42.8118416,-82.9785488,"[-82.9785488, 42.8118416]","26","099","212000","26099212000","2120",Census Tract 2120,G5020,S,"94534481","158880","+42.8559188","-082.9123841"
"73180 FULTON, ARMADA, MI 48005",42.836964,-82.8826104,"[-82.88261039999999, 42.83696399999999]","26","099","212000","26099212000","2120",Census Tract 2120,G5020,S,"94534481","158880","+42.8559188","-082.9123841"
"72025 NORTH AVENUE, ARMADA, MI 48005",42.8291343,-82.887152,"[-82.887152, 42.8291343]","26","099","212000","26099212000","2120",Census Tract 2120,G5020,S,"94534481","158880","+42.8559188","-082.9123841"
"77 ENTERPRISE DRIVE, ANN ARBOR, MI 48103",42.2944457,-83.8714059,"[-83.8714059, 42.2944457]","26","161","455000","26161455000","4550",Census Tract 4550,G5020,S,"23521422","8929","+42.2744673","-083.8650554"
"6200 JACKSON RD, ANN ARBOR, MI 48103",42.2914611,-83.8517902,"[-83.8517902, 42.2914611]","26","161","455000","26161455000","4550",Census Tract 4550,G5020,S,"23521422","8929","+42.2744673","-083.8650554"
"100 N STAEBLER, ANN ARBOR, MI 48103",42.2931966,-83.8566627,"[-83.8566627, 42.29319659999999]","26","161","455000","26161455000","4550",Census Tract 4550,G5020,S,"23521422","8929","+42.2744673","-083.8650554"
"288 DINO DR, ANN ARBOR, MI 48103",42.289101,-83.8819227,"[-83.88192269999999, 42.289101]","26","161","455000","26161455000","4550",Census Tract 4550,G5020,S,"23521422","8929","+42.2744673","-083.8650554"
"122 Enterprise Drive, ANN ARBOR, MI 48103",42.2958558,-83.869087,"[-83.869087, 42.2958558]","26","161","455000","26161455000","4550",Census Tract 4550,G5020,S,"23521422","8929","+42.2744673","-083.8650554"
"111 Enterprise Dr, ANN ARBOR, MI 48103",42.2956569,-83.8700946,"[-83.8700946, 42.2956569]","26","161","455000","26161455000","4550",Census Tract 4550,G5020,S,"23521422","8929","+42.2744673","-083.8650554"
"6055 JACKSON RD, DEXTER, MI 48130",42.2893313,-83.8496626,"[-83.8496626, 42.2893313]","26","161","455000","26161455000","4550",Census Tract 4550,G5020,S,"23521422","8929","+42.2744673","-083.8650554"
"221 JACKSON INDUSTRIAL, ANN ARBOR, MI 48103",42.2850123,-83.8449402,"[-83.8449402, 42.2850123]","26","161","455000","26161455000","4550",Census Tract 4550,G5020,S,"23521422","8929","+42.2744673","-083.8650554"
"293 and 300 DINO DRIVE, SCIO TWP, MI 48103",42.2879459,-83.8818399,"[-83.8818399, 42.2879459]","26","161","455000","26161455000","4550",Census Tract 4550,G5020,S,"23521422","8929","+42.2744673","-083.8650554"
"22 METTY DRIVE, ANN ARBOR, MI 48103",42.2934461,-83.8649044,"[-83.8649044, 42.2934461]","26","161","455000","26161455000","4550",Census Tract 4550,G5020,S,"23521422","8929","+42.2744673","-083.8650554"
"7232 JACKSON ROAD, SCIO TWP, MI 48103",42.2938852,-83.8723997,"[-83.8723997, 42.2938852]","26","161","455000","26161455000","4550",Census Tract 4550,G5020,S,"23521422","8929","+42.2744673","-083.8650554"
"289 Metty Drive, ANN ARBOR, MI 48103",42.297248,-83.8664367,"[-83.8664367, 42.297248]","26","161","455000","26161455000","4550",Census Tract 4550,G5020,S,"23521422","8929","+42.2744673","-083.8650554"
"49 SOUTH DIXBORO ROAD, ANN ARBOR, MI 48105",42.2700747,-83.6654078,"[-83.6654078, 42.2700747]","26","161","406000","26161406000","4060",Census Tract 4060,G5020,S,"39295268","792712","+42.3276344","-083.6964436"
"1555 WOODRIDGE, ANN ARBOR, MI 48105",42.2978282,-83.6780574,"[-83.6780574, 42.2978282]","26","161","406000","26161406000","4060",Census Tract 4060,G5020,S,"39295268","792712","+42.3276344","-083.6964436"
"789 N DIXBORO RD, ANN ARBOR, MI 48105",42.2830831,-83.6749004,"[-83.6749004, 42.2830831]","26","161","406000","26161406000","4060",Census Tract 4060,G5020,S,"39295268","792712","+42.3276344","-083.6964436"
"ANN ARBOR TECHNOLOGY PARK, ANN ARBOR, MI 48105",42.3295957,-83.7092861,"[-83.7092861, 42.3295957]","26","161","406000","26161406000","4060",Census Tract 4060,G5020,S,"39295268","792712","+42.3276344","-083.6964436"
"30 FRANK LLOYD WRIGHT, ANN ARBOR, MI 48016",42.3189484,-83.6812821,"[-83.68128209999999, 42.3189484]","26","161","406000","26161406000","4060",Census Tract 4060,G5020,S,"39295268","792712","+42.3276344","-083.6964436"
"5495 Michigan Ave, YPSILANTI, MI 48197",42.2081971,-83.6788466,"[-83.6788466, 42.2081971]","26","161","416000","26161416000","4160",Census Tract 4160,G5020,S,"3465231","6902","+42.2081300","-083.6726855"
"5331 West Michigan Avenue, YPSILANTI, MI 49435",42.2102591,-83.6751496,"[-83.6751496, 42.21025909999999]","26","161","416000","26161416000","4160",Census Tract 4160,G5020,S,"3465231","6902","+42.2081300","-083.6726855"
"1212 Fairplaines, GREENVILLE, MI 48838",43.1708175,-85.2345628,"[-85.23456279999999, 43.1708175]","26","117","971300","26117971300","9713",Census Tract 9713,G5020,S,"29635014","991359","+43.1515355","-085.2727783"
"701 RANNEY DR, GREENVILLE, MI 48838",43.186524,-85.2481278,"[-85.24812779999999, 43.186524]","26","117","971300","26117971300","9713",Census Tract 9713,G5020,S,"29635014","991359","+43.1515355","-085.2727783"
"510 E GROVE ST, GREENVILLE, MI 48838",43.1827912,-85.2443452,"[-85.2443452, 43.1827912]","26","117","971300","26117971300","9713",Census Tract 9713,G5020,S,"29635014","991359","+43.1515355","-085.2727783"
"501 CEDER ST, GREENVILLE, MI 48838",43.1760556,-85.2461296,"[-85.24612959999999, 43.1760556]","26","117","971300","26117971300","9713",Census Tract 9713,G5020,S,"29635014","991359","+43.1515355","-085.2727783"
"1125 E WASHINGTON, GREENVILLE, MI 48838",43.1727242,-85.2368278,"[-85.2368278, 43.1727242]","26","117","971300","26117971300","9713",Census Tract 9713,G5020,S,"29635014","991359","+43.1515355","-085.2727783"
"8116 RIDE ALL DR., GREENVILLE, MI 48838",43.1775314,-85.2527987,"[-85.2527987, 43.1775314]","26","117","971300","26117971300","9713",Census Tract 9713,G5020,S,"29635014","991359","+43.1515355","-085.2727783"
"115 E. WASHINGTON, GREENVILLE, MI 48838",43.177264,-85.2520537,"[-85.25205369999999, 43.177264]","26","117","971300","26117971300","9713",Census Tract 9713,G5020,S,"29635014","991359","+43.1515355","-085.2727783"
"1105 Arloa Drive, GREENVILLE, MI 49455",43.1574639,-85.2983821,"[-85.2983821, 43.1574639]","26","117","971300","26117971300","9713",Census Tract 9713,G5020,S,"29635014","991359","+43.1515355","-085.2727783"
"635 West Charles Street, GREENVILLE, MI 48838",43.1858163,-85.2578147,"[-85.2578147, 43.1858163]","26","117","971200","26117971200","9712",Census Tract 9712,G5020,S,"30578382","1284615","+43.1928324","-085.2541179"
"1413 CALLAGHAN ST., GREENVILLE, MI 48838",43.1860304,-85.2281716,"[-85.2281716, 43.18603040000001]","26","117","971200","26117971200","9712",Census Tract 9712,G5020,S,"30578382","1284615","+43.1928324","-085.2541179"
"1110 N IRVING ST, GREENVILLE, MI 48838",43.1917305,-85.257514,"[-85.257514, 43.19173050000001]","26","117","971200","26117971200","9712",Census Tract 9712,G5020,S,"30578382","1284615","+43.1928324","-085.2541179"
"1321 Van Deinse Street, GREENVILLE, MI 48838",43.1912467,-85.231974,"[-85.231974, 43.1912467]","26","117","971200","26117971200","9712",Census Tract 9712,G5020,S,"30578382","1284615","+43.1928324","-085.2541179"
"1515 SHEARER RD, GREENVILLE, MI 48838",43.1954344,-85.269256,"[-85.269256, 43.1954344]","26","117","971200","26117971200","9712",Census Tract 9712,G5020,S,"30578382","1284615","+43.1928324","-085.2541179"
"1216 Shearer Rd, GREENVILLE, MI 48838",43.1923147,-85.2668307,"[-85.2668307, 43.1923147]","26","117","971200","26117971200","9712",Census Tract 9712,G5020,S,"30578382","1284615","+43.1928324","-085.2541179"
"1323 MOORE DRIVE, GREENVILLE, MI 48838",43.1879251,-85.231974,"[-85.231974, 43.1879251]","26","117","971200","26117971200","9712",Census Tract 9712,G5020,S,"30578382","1284615","+43.1928324","-085.2541179"
"1 Dicastal Dr., GREENVILLE, MI 48838",43.1991853,-85.2364447,"[-85.23644469999999, 43.1991853]","26","117","971200","26117971200","9712",Census Tract 9712,G5020,S,"30578382","1284615","+43.1928324","-085.2541179"
"5835 VINING RD, GREENVILLE, MI 48838",43.2098136,-85.2419642,"[-85.2419642, 43.2098136]","26","117","971200","26117971200","9712",Census Tract 9712,G5020,S,"30578382","1284615","+43.1928324","-085.2541179"
"1260 E VANDEINSE ST, GREENVILLE, MI 48838",43.193468,-85.2345628,"[-85.23456279999999, 43.193468]","26","117","971200","26117971200","9712",Census Tract 9712,G5020,S,"30578382","1284615","+43.1928324","-085.2541179"
"6288 Greenville Rd, GREENVILLE, MI 48838",43.2030172,-85.252907,"[-85.252907, 43.20301720000001]","26","117","971200","26117971200","9712",Census Tract 9712,G5020,S,"30578382","1284615","+43.1928324","-085.2541179"
"1323 Callaghan Street, GREENVILLE, MI 48838",43.1859629,-85.231546,"[-85.231546, 43.1859629]","26","117","971200","26117971200","9712",Census Tract 9712,G5020,S,"30578382","1284615","+43.1928324","-085.2541179"
"451 STATE, ALGONAC, MI 48001",42.6159729,-82.5435665,"[-82.5435665, 42.6159729]","26","147","649000","26147649000","6490",Census Tract 6490,G5020,S,"3675353","1458982","+42.6207139","-082.5321114"
"1129 Gillett Street, PORT HURON, MI 48060",42.9754488,-82.4361102,"[-82.4361102, 42.9754488]","26","147","622000","26147622000","6220",Census Tract 6220,G5020,S,"1812193","0","+42.9719993","-082.4431250"
"4193  134th Ave, HAMILTON, MI 49419",42.6680112,-85.9556317,"[-85.9556317, 42.6680112]","26","005","030702","26005030702","307.02",Census Tract 307.02,G5020,S,"159609668","8457669","+42.5897288","-085.9594831"
"4670 WASHINGTON ST, HAMILTON, MI 49419",42.6753905,-85.9972067,"[-85.9972067, 42.67539050000001]","26","005","030702","26005030702","307.02",Census Tract 307.02,G5020,S,"159609668","8457669","+42.5897288","-085.9594831"
"3393 S M-40, HAMILTON, MI 49419",42.6628693,-85.9899292,"[-85.98992919999999, 42.6628693]","26","005","030702","26005030702","307.02",Census Tract 307.02,G5020,S,"159609668","8457669","+42.5897288","-085.9594831"
"4143  E. Rathbun Rd., BIRCH RUN, MI 48415",43.282862,-83.8717815,"[-83.8717815, 43.282862]","26","145","013000","26145013000","130",Census Tract 130,G5020,S,"91655253","530421","+43.2597222","-083.8652136"
"4532 E RATHBUN RD, BIRCH RUN, MI 48415",43.27642,-83.866861,"[-83.866861, 43.27641999999999]","26","145","013000","26145013000","130",Census Tract 130,G5020,S,"91655253","530421","+43.2597222","-083.8652136"
"4143 E. Rathburn Road, BIRCH RUN, MI 48415",43.282862,-83.8717815,"[-83.8717815, 43.282862]","26","145","013000","26145013000","130",Census Tract 130,G5020,S,"91655253","530421","+43.2597222","-083.8652136"
"915 N RIVER RD, SAGINAW, MI 48603",43.4220732,-84.0543228,"[-84.0543228, 43.4220732]","26","145","012001","26145012001","120.01",Census Tract 120.01,G5020,S,"8655156","292671","+43.4176071","-084.0577717"
"14490 Beckett Road, JOHANNESBURG, MI 49751",45.014682,-84.3823043,"[-84.3823043, 45.014682]","26","137","950100","26137950100","9501",Census Tract 9501,G5020,S,"495517031","2592330","+45.1063118","-084.5205968"
"14116  HEATHERTON RD, JOHANNESBURG, MI 49751",44.9991802,-84.3879818,"[-84.38798179999999, 44.9991802]","26","137","950100","26137950100","9501",Census Tract 9501,G5020,S,"495517031","2592330","+45.1063118","-084.5205968"
"5750  LOST CABIN TR, JOHANNESBURG, MI 49751",45.1109529,-84.441703,"[-84.44170299999999, 45.1109529]","26","137","950100","26137950100","9501",Census Tract 9501,G5020,S,"495517031","2592330","+45.1063118","-084.5205968"
"108 GARFIELD ST, VANDERBILT, MI 49795",45.1452956,-84.6624658,"[-84.6624658, 45.1452956]","26","137","950100","26137950100","9501",Census Tract 9501,G5020,S,"495517031","2592330","+45.1063118","-084.5205968"
"8500 VALLEY RD, JOHANNESBURG, MI 49751",45.0261613,-84.3843247,"[-84.3843247, 45.0261613]","26","137","950100","26137950100","9501",Census Tract 9501,G5020,S,"495517031","2592330","+45.1063118","-084.5205968"
"SW NE NW Sec 11 T30N R1W, CHARLTON TWP, MI 49735",44.9953568,-84.4340843,"[-84.4340843, 44.9953568]","26","137","950100","26137950100","9501",Census Tract 9501,G5020,S,"495517031","2592330","+45.1063118","-084.5205968"
"11859 Sparr Rd, JOHANNESBURG, MI 49751",45.0431186,-84.4323198,"[-84.4323198, 45.0431186]","26","137","950100","26137950100","9501",Census Tract 9501,G5020,S,"495517031","2592330","+45.1063118","-084.5205968"
